{
"type": "FeatureCollection",
"name": "sql_statement",
"crs": { "type": "name", "properties": { "name": "urn:ogc:def:crs:OGC:1.3:CRS84" } },
"features": [
{ "type": "Feature", "properties": { "fips_code": "0200065", "name": "Adak", "regional_corporation_fips_code": "0201570", "borough_fips_code": "02016", "grid_id": 186, "ansi_code": "02419346", "dcra_code": "C712D789-18CD-4C6C-A0FB-E5B7BB9B1B86", "latitude": 51.86824598, "longitude": -176.64029588, "pce_eligible": null, "pce_active": null }, "geometry": { "type": "Point", "coordinates": [ -176.640295881999975, 51.868245977000072 ] } },
{ "type": "Feature", "properties": { "fips_code": "0200650", "name": "Akhiok", "regional_corporation_fips_code": "0241640", "borough_fips_code": "02150", "grid_id": 1, "ansi_code": "02419347", "dcra_code": "68670103-A544-40F0-AD9E-7215DEC2434C", "latitude": 56.94681464, "longitude": -154.17324554000001, "pce_eligible": null, "pce_active": null }, "geometry": { "type": "Point", "coordinates": [ -154.173245540999972, 56.94681464100006 ] } },
{ "type": "Feature", "properties": { "fips_code": "0200760", "name": "Akiachak", "regional_corporation_fips_code": "0209800", "borough_fips_code": "02050", "grid_id": 2, "ansi_code": "02418756", "dcra_code": "D381614D-1B3D-4C01-A916-B139441D4A88", "latitude": 60.91380831, "longitude": -161.44909474, "pce_eligible": null, "pce_active": null }, "geometry": { "type": "Point", "coordinates": [ -161.449094743999979, 60.913808313000061 ] } },
{ "type": "Feature", "properties": { "fips_code": "0200870", "name": "Akiak", "regional_corporation_fips_code": "0209800", "borough_fips_code": "02050", "grid_id": 3, "ansi_code": "02419348", "dcra_code": "B9E3D976-5DA3-4850-884A-E7818D521898", "latitude": 60.90749213, "longitude": -161.23000172, "pce_eligible": null, "pce_active": null }, "geometry": { "type": "Point", "coordinates": [ -161.230001724999966, 60.907492134000051 ] } },
{ "type": "Feature", "properties": { "fips_code": "0201090", "name": "Akutan", "regional_corporation_fips_code": "0201570", "borough_fips_code": "02013", "grid_id": 4, "ansi_code": "02419349", "dcra_code": "D57C95FC-45D5-44E0-B99B-5325C15EBE66", "latitude": 54.13431811, "longitude": -165.77353925, "pce_eligible": null, "pce_active": null }, "geometry": { "type": "Point", "coordinates": [ -165.773539253999985, 54.13431810600008 ] } },
{ "type": "Feature", "properties": { "fips_code": "0201200", "name": "Alakanuk", "regional_corporation_fips_code": "0209800", "borough_fips_code": "02270", "grid_id": 45, "ansi_code": "02419350", "dcra_code": "8142710A-7405-430F-9A0B-C44338B4B31A", "latitude": 62.68697714, "longitude": -164.66754759, "pce_eligible": null, "pce_active": null }, "geometry": { "type": "Point", "coordinates": [ -164.667547587999962, 62.686977141000057 ] } },
{ "type": "Feature", "properties": { "fips_code": "0201305", "name": "Alatna", "regional_corporation_fips_code": "0220010", "borough_fips_code": "02290", "grid_id": 5, "ansi_code": "02418761", "dcra_code": "88A2EC6A-4FB2-4D64-9FA0-19C13D5A37FB", "latitude": 66.55452803, "longitude": -152.70131499, "pce_eligible": null, "pce_active": null }, "geometry": { "type": "Point", "coordinates": [ -152.701314989999958, 66.554528029000039 ] } },
{ "type": "Feature", "properties": { "fips_code": "0201390", "name": "Alcan Border", "regional_corporation_fips_code": "0220010", "borough_fips_code": "02240", "grid_id": null, "ansi_code": "02418762", "dcra_code": "3A2BEA63-41B6-445E-BF20-B04461C94803", "latitude": 62.62210719, "longitude": -141.010596, "pce_eligible": null, "pce_active": null }, "geometry": { "type": "Point", "coordinates": [ -141.010595997, 62.62210719400008 ] } },
{ "type": "Feature", "properties": { "fips_code": "0201420", "name": "Aleknagik", "regional_corporation_fips_code": "0209040", "borough_fips_code": "02070", "grid_id": 169, "ansi_code": "02419351", "dcra_code": "D9F6FF1F-CC12-41CB-B678-41BBCC900FF9", "latitude": 59.27920737, "longitude": -158.62162503, "pce_eligible": null, "pce_active": null }, "geometry": { "type": "Point", "coordinates": [ -158.621625031999969, 59.279207366000037 ] } },
{ "type": "Feature", "properties": { "fips_code": "0201560", "name": "Aleneva", "regional_corporation_fips_code": "0241640", "borough_fips_code": "02150", "grid_id": null, "ansi_code": "02418764", "dcra_code": "29D4602C-A471-4961-BBEC-AB22938F5F26", "latitude": 58.00410201, "longitude": -152.88103859, "pce_eligible": null, "pce_active": null }, "geometry": { "type": "Point", "coordinates": [ -152.881038586999978, 58.00410200500005 ] } },
{ "type": "Feature", "properties": { "fips_code": "0201860", "name": "Allakaket", "regional_corporation_fips_code": "0220010", "borough_fips_code": "02290", "grid_id": 5, "ansi_code": "02419352", "dcra_code": "D9E1C7EB-2990-486A-BEC6-DF457C95E944", "latitude": 66.56004842, "longitude": -152.64948048, "pce_eligible": null, "pce_active": null }, "geometry": { "type": "Point", "coordinates": [ -152.649480481999973, 66.560048424000058 ] } },
{ "type": "Feature", "properties": { "fips_code": "0201970", "name": "Ambler", "regional_corporation_fips_code": "0252120", "borough_fips_code": "02188", "grid_id": 35, "ansi_code": "02419353", "dcra_code": "E98663F6-E635-4427-85F1-48E3042D196E", "latitude": 67.08647078, "longitude": -157.85652784000001, "pce_eligible": null, "pce_active": null }, "geometry": { "type": "Point", "coordinates": [ -157.85652784399997, 67.086470778000034 ] } },
{ "type": "Feature", "properties": { "fips_code": "0202080", "name": "Anaktuvuk Pass", "regional_corporation_fips_code": "0203950", "borough_fips_code": "02185", "grid_id": 160, "ansi_code": "02419354", "dcra_code": "C8F22DE3-2D24-49CD-A867-3855226D712F", "latitude": 68.14185077, "longitude": -151.73586607, "pce_eligible": null, "pce_active": null }, "geometry": { "type": "Point", "coordinates": [ -151.735866066999961, 68.141850766000061 ] } },
{ "type": "Feature", "properties": { "fips_code": "0203110", "name": "Anchor Point", "regional_corporation_fips_code": "0217140", "borough_fips_code": "02122", "grid_id": 215, "ansi_code": "02418770", "dcra_code": "C20E1D6B-1DBC-4F69-B3F3-1AEC09EDDD83", "latitude": 59.7764369, "longitude": -151.83401493, "pce_eligible": null, "pce_active": null }, "geometry": { "type": "Point", "coordinates": [ -151.834014928999977, 59.776436896000064 ] } },
{ "type": "Feature", "properties": { "fips_code": "0203000", "name": "Anchorage", "regional_corporation_fips_code": "0217140", "borough_fips_code": "02020", "grid_id": 215, "ansi_code": "02419025", "dcra_code": "41989645-CCA3-466B-9817-909C7EBD3FF1", "latitude": 61.21627757, "longitude": -149.89484742, "pce_eligible": null, "pce_active": null }, "geometry": { "type": "Point", "coordinates": [ -149.89484742199997, 61.216277566000031 ] } },
{ "type": "Feature", "properties": { "fips_code": "0203220", "name": "Anderson", "regional_corporation_fips_code": "0220010", "borough_fips_code": "02068", "grid_id": 215, "ansi_code": "02419355", "dcra_code": "3999FA6E-F8E0-4528-9406-C991F8BB8C52", "latitude": 64.34335795, "longitude": -149.19078163, "pce_eligible": null, "pce_active": null }, "geometry": { "type": "Point", "coordinates": [ -149.190781633999961, 64.343357952000076 ] } },
{ "type": "Feature", "properties": { "fips_code": "0203440", "name": "Angoon", "regional_corporation_fips_code": "0267940", "borough_fips_code": "02105", "grid_id": 125, "ansi_code": "02419356", "dcra_code": "B81542E6-6232-4F35-AEC4-F6C46F2BBDE1", "latitude": 57.4995695, "longitude": -134.58084625000001, "pce_eligible": null, "pce_active": null }, "geometry": { "type": "Point", "coordinates": [ -134.580846252999947, 57.499569497000039 ] } },
{ "type": "Feature", "properties": { "fips_code": "0203550", "name": "Aniak", "regional_corporation_fips_code": "0209800", "borough_fips_code": "02050", "grid_id": 93, "ansi_code": "02419357", "dcra_code": "4D22DC8A-9F5A-4C83-B835-F1133D6A8060", "latitude": 61.57876388, "longitude": -159.52759488000001, "pce_eligible": null, "pce_active": null }, "geometry": { "type": "Point", "coordinates": [ -159.527594876999984, 61.578763877000029 ] } },
{ "type": "Feature", "properties": { "fips_code": "0203880", "name": "Anvik", "regional_corporation_fips_code": "0220010", "borough_fips_code": "02290", "grid_id": 36, "ansi_code": "02419358", "dcra_code": "AED9D55C-5519-4DA0-A4A7-28349D8498CD", "latitude": 62.65252995, "longitude": -160.1993288, "pce_eligible": null, "pce_active": null }, "geometry": { "type": "Point", "coordinates": [ -160.199328798999971, 62.652529951000076 ] } },
{ "type": "Feature", "properties": { "fips_code": "0203990", "name": "Arctic Village", "regional_corporation_fips_code": "0220010", "borough_fips_code": "02290", "grid_id": 94, "ansi_code": "02418777", "dcra_code": "3FD9E5F5-DE1E-47BC-A8FC-ECEFCA7C2EA8", "latitude": 68.12846168, "longitude": -145.53554078, "pce_eligible": null, "pce_active": null }, "geometry": { "type": "Point", "coordinates": [ -145.53554078199997, 68.128461679000054 ] } },
{ "type": "Feature", "properties": { "fips_code": "0204210", "name": "Atka", "regional_corporation_fips_code": "0201570", "borough_fips_code": "02016", "grid_id": 95, "ansi_code": "02419359", "dcra_code": "C80F8014-AF4E-4834-B4A8-DED62C0786C1", "latitude": 52.19780764, "longitude": -174.20019881, "pce_eligible": null, "pce_active": null }, "geometry": { "type": "Point", "coordinates": [ -174.200198812999986, 52.197807635000061 ] } },
{ "type": "Feature", "properties": { "fips_code": "0204430", "name": "Atmautluak", "regional_corporation_fips_code": "0209800", "borough_fips_code": "02050", "grid_id": 96, "ansi_code": "02418781", "dcra_code": "887F3239-34EE-4A3A-9B7A-522E212DA730", "latitude": 60.85729827, "longitude": -162.27641211, "pce_eligible": null, "pce_active": null }, "geometry": { "type": "Point", "coordinates": [ -162.27641210799996, 60.857298265000054 ] } },
{ "type": "Feature", "properties": { "fips_code": "0204500", "name": "Atqasuk", "regional_corporation_fips_code": "0203950", "borough_fips_code": "02185", "grid_id": 161, "ansi_code": "02419360", "dcra_code": "A79A606F-AA69-4994-A5A0-5E8AFE9EBA9A", "latitude": 70.48213652, "longitude": -157.4235473, "pce_eligible": null, "pce_active": null }, "geometry": { "type": "Point", "coordinates": [ -157.423547296999971, 70.482136524000055 ] } },
{ "type": "Feature", "properties": { "fips_code": "0204670", "name": "Attu Station", "regional_corporation_fips_code": "0201570", "borough_fips_code": "02016", "grid_id": null, "ansi_code": "02418783", "dcra_code": "4B169010-F268-45A8-8444-F0B5873ABDEE", "latitude": 52.82597479, "longitude": -186.82919984, "pce_eligible": null, "pce_active": null }, "geometry": { "type": "Point", "coordinates": [ 173.170800155000023, 52.825974789000043 ] } },
{ "type": "Feature", "properties": { "fips_code": "0205000", "name": "Badger", "regional_corporation_fips_code": "0220010", "borough_fips_code": "02090", "grid_id": 215, "ansi_code": "02582709", "dcra_code": "DAC7203E-0D8F-434C-A2FA-C699EDD5B8CB", "latitude": 64.80456701, "longitude": -147.41261495000001, "pce_eligible": null, "pce_active": null }, "geometry": { "type": "Point", "coordinates": [ -147.412614954999981, 64.804567008000049 ] } },
{ "type": "Feature", "properties": { "fips_code": "0205585", "name": "Bear Creek", "regional_corporation_fips_code": "0214410", "borough_fips_code": "02122", "grid_id": 215, "ansi_code": "02418785", "dcra_code": "2B076D8C-6D9B-439C-90F1-92FEAE651E60", "latitude": 60.16854457, "longitude": -149.40230311, "pce_eligible": null, "pce_active": null }, "geometry": { "type": "Point", "coordinates": [ -149.402303105999977, 60.168544565000047 ] } },
{ "type": "Feature", "properties": { "fips_code": "0205750", "name": "Beaver", "regional_corporation_fips_code": "0220010", "borough_fips_code": "02290", "grid_id": 97, "ansi_code": "02418787", "dcra_code": "FF43C1B1-9D83-4F8A-B3B2-E404ACC9D5B1", "latitude": 66.36034846, "longitude": -147.39714881, "pce_eligible": null, "pce_active": null }, "geometry": { "type": "Point", "coordinates": [ -147.39714881499998, 66.360348462000047 ] } },
{ "type": "Feature", "properties": { "fips_code": "0206245", "name": "Beluga", "regional_corporation_fips_code": "0217140", "borough_fips_code": "02122", "grid_id": 215, "ansi_code": "02418789", "dcra_code": "D72A5701-11AB-4596-AA0D-A2881CCB42B1", "latitude": 61.17214851, "longitude": -151.04303622, "pce_eligible": null, "pce_active": null }, "geometry": { "type": "Point", "coordinates": [ -151.043036221999984, 61.172148510000056 ] } },
{ "type": "Feature", "properties": { "fips_code": "0206520", "name": "Bethel", "regional_corporation_fips_code": "0209800", "borough_fips_code": "02050", "grid_id": 34, "ansi_code": "02419362", "dcra_code": "7B1302D1-C2B4-402C-8C43-141B93681692", "latitude": 60.7911992, "longitude": -161.77177087000001, "pce_eligible": null, "pce_active": null }, "geometry": { "type": "Point", "coordinates": [ -161.771770865999969, 60.791199197000083 ] } },
{ "type": "Feature", "properties": { "fips_code": "0206630", "name": "Bettles", "regional_corporation_fips_code": "0220010", "borough_fips_code": "02290", "grid_id": 7, "ansi_code": "02419363", "dcra_code": "C4674250-987C-40CD-B550-D246607343D4", "latitude": 66.92186904, "longitude": -151.50835587, "pce_eligible": null, "pce_active": null }, "geometry": { "type": "Point", "coordinates": [ -151.508355869999974, 66.921869044000061 ] } },
{ "type": "Feature", "properties": { "fips_code": "0206850", "name": "Big Delta", "regional_corporation_fips_code": "0220010", "borough_fips_code": "02240", "grid_id": 215, "ansi_code": "02418791", "dcra_code": "3DD78FBE-F02D-4634-B206-835BAF4DDD8E", "latitude": 64.14721319, "longitude": -145.83455566000001, "pce_eligible": null, "pce_active": null }, "geometry": { "type": "Point", "coordinates": [ -145.834555662999975, 64.147213186000045 ] } },
{ "type": "Feature", "properties": { "fips_code": "0207070", "name": "Big Lake", "regional_corporation_fips_code": "0217140", "borough_fips_code": "02170", "grid_id": 215, "ansi_code": "02418792", "dcra_code": "2AA584CB-3B03-4D75-8F91-A995C37D4C4D", "latitude": 61.55227873, "longitude": -149.81915873, "pce_eligible": null, "pce_active": null }, "geometry": { "type": "Point", "coordinates": [ -149.81915872899998, 61.552278728000033 ] } },
{ "type": "Feature", "properties": { "fips_code": "0207620", "name": "Birch Creek", "regional_corporation_fips_code": "0220010", "borough_fips_code": "02290", "grid_id": 98, "ansi_code": "02418795", "dcra_code": "6EA0B92C-E267-478F-99A6-DA6EAC948390", "latitude": 66.2629693, "longitude": -145.8179463, "pce_eligible": null, "pce_active": null }, "geometry": { "type": "Point", "coordinates": [ -145.817946298999971, 66.262969297000041 ] } },
{ "type": "Feature", "properties": { "fips_code": "0208740", "name": "Brevig Mission", "regional_corporation_fips_code": "0206370", "borough_fips_code": "02180", "grid_id": 39, "ansi_code": "02419364", "dcra_code": "01088110-F1CF-4DF6-A7C8-446D20A2B257", "latitude": 65.33448805, "longitude": -166.4922015, "pce_eligible": null, "pce_active": null }, "geometry": { "type": "Point", "coordinates": [ -166.492201504999969, 65.334488047000036 ] } },
{ "type": "Feature", "properties": { "fips_code": "0209600", "name": "Buckland", "regional_corporation_fips_code": "0252120", "borough_fips_code": "02188", "grid_id": 99, "ansi_code": "02419365", "dcra_code": "2FD931D4-12DB-45C2-834A-4B4559E54BA5", "latitude": 65.97765384, "longitude": -161.12902024, "pce_eligible": null, "pce_active": null }, "geometry": { "type": "Point", "coordinates": [ -161.129020242999985, 65.977653835000069 ] } },
{ "type": "Feature", "properties": { "fips_code": "0209657", "name": "Buffalo Soapstone", "regional_corporation_fips_code": "0217140", "borough_fips_code": "02170", "grid_id": 215, "ansi_code": "02418798", "dcra_code": "2D6814D6-89F0-4625-BF64-3C6A59C5FA97", "latitude": 61.69132433, "longitude": -149.01110337, "pce_eligible": null, "pce_active": null }, "geometry": { "type": "Point", "coordinates": [ -149.011103374999976, 61.691324334000058 ] } },
{ "type": "Feature", "properties": { "fips_code": "0209710", "name": "Butte", "regional_corporation_fips_code": "0217140", "borough_fips_code": "02170", "grid_id": 215, "ansi_code": "02418799", "dcra_code": "9A9D4747-657F-4044-BB90-7E45B94AB987", "latitude": 61.54162777, "longitude": -149.03543549, "pce_eligible": null, "pce_active": null }, "geometry": { "type": "Point", "coordinates": [ -149.035435490999959, 61.541627771000037 ] } },
{ "type": "Feature", "properties": { "fips_code": "0210150", "name": "Cantwell", "regional_corporation_fips_code": "0200590", "borough_fips_code": "02068", "grid_id": 215, "ansi_code": "02418801", "dcra_code": "E263C114-3707-494D-84BF-BCBDC754E133", "latitude": 63.39242527, "longitude": -148.89538626000001, "pce_eligible": null, "pce_active": null }, "geometry": { "type": "Point", "coordinates": [ -148.895386258999963, 63.392425266000032 ] } },
{ "type": "Feature", "properties": { "fips_code": "0211690", "name": "Central", "regional_corporation_fips_code": "0220010", "borough_fips_code": "02290", "grid_id": 116, "ansi_code": "02418803", "dcra_code": "5729F5A2-2D55-4611-8C20-838834BEA9AA", "latitude": 65.57070889000001, "longitude": -144.82193545000001, "pce_eligible": null, "pce_active": null }, "geometry": { "type": "Point", "coordinates": [ -144.821935448999966, 65.570708894000063 ] } },
{ "type": "Feature", "properties": { "fips_code": "0211800", "name": "Chalkyitsik", "regional_corporation_fips_code": "0220010", "borough_fips_code": "02290", "grid_id": 100, "ansi_code": "02418805", "dcra_code": "98D5F010-433A-452A-8E40-1DC756B3B809", "latitude": 66.65040098, "longitude": -143.7278962, "pce_eligible": null, "pce_active": null }, "geometry": { "type": "Point", "coordinates": [ -143.727896198, 66.650400981000075 ] } },
{ "type": "Feature", "properties": { "fips_code": "0212350", "name": "Chase", "regional_corporation_fips_code": "0217140", "borough_fips_code": "02170", "grid_id": 215, "ansi_code": "02418806", "dcra_code": "427130A7-E294-4C77-9945-66799C9AE903", "latitude": 62.44980587, "longitude": -150.0512588, "pce_eligible": null, "pce_active": null }, "geometry": { "type": "Point", "coordinates": [ -150.051258796999974, 62.449805870000034 ] } },
{ "type": "Feature", "properties": { "fips_code": "0212680", "name": "Chefornak", "regional_corporation_fips_code": "0209800", "borough_fips_code": "02050", "grid_id": 154, "ansi_code": "02419366", "dcra_code": "A446B551-74BE-4F56-B131-523C342C41BA", "latitude": 60.15801495, "longitude": -164.28034055000001, "pce_eligible": null, "pce_active": null }, "geometry": { "type": "Point", "coordinates": [ -164.280340552999974, 60.158014953000077 ] } },
{ "type": "Feature", "properties": { "fips_code": "0212920", "name": "Chena Ridge", "regional_corporation_fips_code": "0220010", "borough_fips_code": "02090", "grid_id": 215, "ansi_code": "02582710", "dcra_code": "ED0D2D29-01A6-4CF8-83BC-B974F9DDF83B", "latitude": 64.82586622, "longitude": -147.96915819, "pce_eligible": null, "pce_active": null }, "geometry": { "type": "Point", "coordinates": [ -147.969158189999973, 64.825866223000048 ] } },
{ "type": "Feature", "properties": { "fips_code": "0212970", "name": "Chenega", "regional_corporation_fips_code": "0214410", "borough_fips_code": "02063", "grid_id": 101, "ansi_code": "02418809", "dcra_code": "05CB5D5F-15BA-4574-8F40-04CAFA9B5770", "latitude": 60.06559632, "longitude": -148.01234038000001, "pce_eligible": null, "pce_active": null }, "geometry": { "type": "Point", "coordinates": [ -148.012340384999959, 60.065596322000033 ] } },
{ "type": "Feature", "properties": { "fips_code": "0213230", "name": "Chevak", "regional_corporation_fips_code": "0209800", "borough_fips_code": "02270", "grid_id": 40, "ansi_code": "02419367", "dcra_code": "8ECE306F-1205-474A-AF5D-5A82326AFDD3", "latitude": 61.52861818, "longitude": -165.59052769, "pce_eligible": null, "pce_active": null }, "geometry": { "type": "Point", "coordinates": [ -165.59052768899997, 61.528618176000066 ] } },
{ "type": "Feature", "properties": { "fips_code": "0213340", "name": "Chickaloon", "regional_corporation_fips_code": "0217140", "borough_fips_code": "02170", "grid_id": 215, "ansi_code": "02418817", "dcra_code": "CF24E3C4-5B20-4D19-BAA0-498A17870CA8", "latitude": 61.79624012, "longitude": -148.47881249, "pce_eligible": null, "pce_active": null }, "geometry": { "type": "Point", "coordinates": [ -148.478812485999981, 61.796240123000075 ] } },
{ "type": "Feature", "properties": { "fips_code": "0213450", "name": "Chicken", "regional_corporation_fips_code": "0220010", "borough_fips_code": "02240", "grid_id": null, "ansi_code": "02418819", "dcra_code": "0C46910A-CF22-422A-A69E-499EC6219D46", "latitude": 64.07262591, "longitude": -141.93364877, "pce_eligible": null, "pce_active": null }, "geometry": { "type": "Point", "coordinates": [ -141.933648768999944, 64.072625913000081 ] } },
{ "type": "Feature", "properties": { "fips_code": "0213550", "name": "Chignik", "regional_corporation_fips_code": "0209040", "borough_fips_code": "02164", "grid_id": 104, "ansi_code": "02419368", "dcra_code": "99F023D0-9290-48CE-8E68-5683A57192DC", "latitude": 56.3012632, "longitude": -158.41415576, "pce_eligible": null, "pce_active": null }, "geometry": { "type": "Point", "coordinates": [ -158.414155760999961, 56.301263195000047 ] } },
{ "type": "Feature", "properties": { "fips_code": "0213670", "name": "Chignik Lagoon", "regional_corporation_fips_code": "0209040", "borough_fips_code": "02164", "grid_id": 102, "ansi_code": "02418822", "dcra_code": "5FBF89C8-6F1F-4610-B81F-18286B0993C8", "latitude": 56.31042481, "longitude": -158.53776105, "pce_eligible": null, "pce_active": null }, "geometry": { "type": "Point", "coordinates": [ -158.537761051999979, 56.310424805000082 ] } },
{ "type": "Feature", "properties": { "fips_code": "0213780", "name": "Chignik Lake", "regional_corporation_fips_code": "0209040", "borough_fips_code": "02164", "grid_id": 103, "ansi_code": "02418824", "dcra_code": "F821657B-F119-4950-BB18-F827B06C680C", "latitude": 56.25373123, "longitude": -158.76308415, "pce_eligible": null, "pce_active": null }, "geometry": { "type": "Point", "coordinates": [ -158.763084151999976, 56.253731233000053 ] } },
{ "type": "Feature", "properties": { "fips_code": "0213860", "name": "Chiniak", "regional_corporation_fips_code": "0241640", "borough_fips_code": "02150", "grid_id": 223, "ansi_code": "02418827", "dcra_code": "9C0DF89A-A248-470E-82A5-F25ED75A098A", "latitude": 57.61797554, "longitude": -152.22281779, "pce_eligible": null, "pce_active": null }, "geometry": { "type": "Point", "coordinates": [ -152.222817789999965, 57.617975539000042 ] } },
{ "type": "Feature", "properties": { "fips_code": "0213890", "name": "Chisana", "regional_corporation_fips_code": "0200590", "borough_fips_code": "02066", "grid_id": null, "ansi_code": "02418828", "dcra_code": "6DF664D4-9279-4A4A-9BF8-BCA1A2EF6222", "latitude": 62.05966564, "longitude": -142.03526376, "pce_eligible": null, "pce_active": null }, "geometry": { "type": "Point", "coordinates": [ -142.035263757999985, 62.05966563700008 ] } },
{ "type": "Feature", "properties": { "fips_code": "0214000", "name": "Chistochina", "regional_corporation_fips_code": "0200590", "borough_fips_code": "02066", "grid_id": 26, "ansi_code": "02418830", "dcra_code": "72692AC5-B991-4B3E-A2AD-8EA498D7AF48", "latitude": 62.56636226, "longitude": -144.66418745, "pce_eligible": null, "pce_active": null }, "geometry": { "type": "Point", "coordinates": [ -144.664187454999961, 62.566362259000073 ] } },
{ "type": "Feature", "properties": { "fips_code": "0214110", "name": "Chitina", "regional_corporation_fips_code": "0200590", "borough_fips_code": "02066", "grid_id": 105, "ansi_code": "02418832", "dcra_code": "5CD6634F-015C-4D3A-8F00-755FB6A3D186", "latitude": 61.51649027, "longitude": -144.44111788000001, "pce_eligible": null, "pce_active": null }, "geometry": { "type": "Point", "coordinates": [ -144.441117878999961, 61.516490271000066 ] } },
{ "type": "Feature", "properties": { "fips_code": "0214330", "name": "Chuathbaluk", "regional_corporation_fips_code": "0209800", "borough_fips_code": "02050", "grid_id": 144, "ansi_code": "02419369", "dcra_code": "493BC9A8-7869-476D-9319-B88C76EB388A", "latitude": 61.57491472, "longitude": -159.24202177000001, "pce_eligible": null, "pce_active": null }, "geometry": { "type": "Point", "coordinates": [ -159.242021765999965, 61.57491471700007 ] } },
{ "type": "Feature", "properties": { "fips_code": "0214880", "name": "Circle", "regional_corporation_fips_code": "0220010", "borough_fips_code": "02290", "grid_id": 106, "ansi_code": "02418837", "dcra_code": "98B27D83-9E27-4EE6-A6AB-CEED07523629", "latitude": 65.82664654, "longitude": -144.06674913000001, "pce_eligible": null, "pce_active": null }, "geometry": { "type": "Point", "coordinates": [ -144.066749133999963, 65.82664653900008 ] } },
{ "type": "Feature", "properties": { "fips_code": "0215320", "name": "Clam Gulch", "regional_corporation_fips_code": "0217140", "borough_fips_code": "02122", "grid_id": 215, "ansi_code": "02418838", "dcra_code": "EC16CE1C-0D9C-429D-A6DE-133FCC9D3FF9", "latitude": 60.22643138, "longitude": -151.40223941, "pce_eligible": null, "pce_active": null }, "geometry": { "type": "Point", "coordinates": [ -151.402239411999972, 60.226431383000033 ] } },
{ "type": "Feature", "properties": { "fips_code": "0215430", "name": "Clark's Point", "regional_corporation_fips_code": "0209040", "borough_fips_code": "02070", "grid_id": 107, "ansi_code": "02419370", "dcra_code": "16FFACBB-CCBD-4A00-829F-F89904105FD5", "latitude": 58.8345343, "longitude": -158.54797691, "pce_eligible": null, "pce_active": null }, "geometry": { "type": "Point", "coordinates": [ -158.547976912999985, 58.834534303000055 ] } },
{ "type": "Feature", "properties": { "fips_code": "0216360", "name": "Coffman Cove", "regional_corporation_fips_code": "0267940", "borough_fips_code": "02198", "grid_id": 23, "ansi_code": "02419371", "dcra_code": "1F684F46-814E-4675-B09B-A8449105B5E9", "latitude": 56.01404249, "longitude": -132.82826284000001, "pce_eligible": null, "pce_active": null }, "geometry": { "type": "Point", "coordinates": [ -132.828262839999979, 56.014042493000034 ] } },
{ "type": "Feature", "properties": { "fips_code": "0216420", "name": "Cohoe", "regional_corporation_fips_code": "0217140", "borough_fips_code": "02122", "grid_id": 215, "ansi_code": "02418842", "dcra_code": "9F0FE231-3223-4A37-89B8-9182CD7AB22F", "latitude": 60.36911853, "longitude": -151.31957957, "pce_eligible": null, "pce_active": null }, "geometry": { "type": "Point", "coordinates": [ -151.319579569999974, 60.369118534000052 ] } },
{ "type": "Feature", "properties": { "fips_code": "0216530", "name": "Cold Bay", "regional_corporation_fips_code": "0201570", "borough_fips_code": "02013", "grid_id": 114, "ansi_code": "02419372", "dcra_code": "E5A46A8B-30C9-4FDF-A19D-A6A96277A26C", "latitude": 55.20656795, "longitude": -162.71498738, "pce_eligible": null, "pce_active": null }, "geometry": { "type": "Point", "coordinates": [ -162.714987382999965, 55.206567948000043 ] } },
{ "type": "Feature", "properties": { "fips_code": "0216630", "name": "Coldfoot", "regional_corporation_fips_code": "0220010", "borough_fips_code": "02290", "grid_id": null, "ansi_code": "02418843", "dcra_code": "1210EAEB-20DF-40DD-8BAB-A09C48AE9887", "latitude": 67.25623468000001, "longitude": -150.18959842000001, "pce_eligible": null, "pce_active": null }, "geometry": { "type": "Point", "coordinates": [ -150.189598422999978, 67.256234684000049 ] } },
{ "type": "Feature", "properties": { "fips_code": "0216750", "name": "College", "regional_corporation_fips_code": "0220010", "borough_fips_code": "02090", "grid_id": 215, "ansi_code": "02418844", "dcra_code": "BF7F929A-CAE2-486C-83EF-C7AF2FADFA2B", "latitude": 64.8569, "longitude": -147.8028, "pce_eligible": null, "pce_active": null }, "geometry": { "type": "Point", "coordinates": [ -147.8028, 64.8569 ] } },
{ "type": "Feature", "properties": { "fips_code": "0217190", "name": "Cooper Landing", "regional_corporation_fips_code": "0217140", "borough_fips_code": "02122", "grid_id": 215, "ansi_code": "02418845", "dcra_code": "CB929A5F-AF01-4DE3-8855-87193B97F75F", "latitude": 60.49487276, "longitude": -149.80840696000001, "pce_eligible": null, "pce_active": null }, "geometry": { "type": "Point", "coordinates": [ -149.808406957999978, 60.494872759000032 ] } },
{ "type": "Feature", "properties": { "fips_code": "0217300", "name": "Copper Center", "regional_corporation_fips_code": "0200590", "borough_fips_code": "02066", "grid_id": 216, "ansi_code": "02418847", "dcra_code": "609CFD2F-EC75-4F32-BDD7-C33D0C9FECE2", "latitude": 61.955, "longitude": -145.3053, "pce_eligible": null, "pce_active": null }, "geometry": { "type": "Point", "coordinates": [ -145.3053, 61.955 ] } },
{ "type": "Feature", "properties": { "fips_code": "0217410", "name": "Cordova", "regional_corporation_fips_code": "0214410", "borough_fips_code": "02063", "grid_id": 14, "ansi_code": "02419373", "dcra_code": "3921BE55-50DD-4433-8958-D5D2F2D001AE", "latitude": 60.54406292, "longitude": -145.76017488, "pce_eligible": null, "pce_active": null }, "geometry": { "type": "Point", "coordinates": [ -145.76017488399998, 60.54406292200008 ] } },
{ "type": "Feature", "properties": { "fips_code": "0217670", "name": "Covenant Life", "regional_corporation_fips_code": "0267940", "borough_fips_code": "02100", "grid_id": 32, "ansi_code": "02418850", "dcra_code": "E4085300-359F-4509-9843-50524D6A0692", "latitude": 59.39371811, "longitude": -135.98980801, "pce_eligible": null, "pce_active": null }, "geometry": { "type": "Point", "coordinates": [ -135.989808005999976, 59.39371810800003 ] } },
{ "type": "Feature", "properties": { "fips_code": "0217740", "name": "Craig", "regional_corporation_fips_code": "0267940", "borough_fips_code": "02198", "grid_id": 23, "ansi_code": "02419374", "dcra_code": "CAEF7CF3-5B35-45C3-9D11-A9E32B99E79B", "latitude": 55.47604421, "longitude": -133.15108263, "pce_eligible": null, "pce_active": null }, "geometry": { "type": "Point", "coordinates": [ -133.151082632999987, 55.476044205000051 ] } },
{ "type": "Feature", "properties": { "fips_code": "0217850", "name": "Crooked Creek", "regional_corporation_fips_code": "0209800", "borough_fips_code": "02050", "grid_id": 145, "ansi_code": "02418853", "dcra_code": "8B69F4F5-9833-40B1-B264-CBE2A5544BC8", "latitude": 61.87042537, "longitude": -158.10581652, "pce_eligible": null, "pce_active": null }, "geometry": { "type": "Point", "coordinates": [ -158.105816519999962, 61.870425374000035 ] } },
{ "type": "Feature", "properties": { "fips_code": "0217960", "name": "Crown Point", "regional_corporation_fips_code": "0217140", "borough_fips_code": "02122", "grid_id": 215, "ansi_code": "02418549", "dcra_code": "07E54FE2-DCBE-4AD4-8894-6E012A80DDB1", "latitude": 60.41930962, "longitude": -149.36954724, "pce_eligible": null, "pce_active": null }, "geometry": { "type": "Point", "coordinates": [ -149.369547244999978, 60.419309623000061 ] } },
{ "type": "Feature", "properties": { "fips_code": "0218510", "name": "Deering", "regional_corporation_fips_code": "0252120", "borough_fips_code": "02188", "grid_id": 130, "ansi_code": "02419375", "dcra_code": "A2CE0B1C-09FD-4927-A2E9-B20CC0109806", "latitude": 66.07667336, "longitude": -162.72884219, "pce_eligible": null, "pce_active": null }, "geometry": { "type": "Point", "coordinates": [ -162.728842191999973, 66.07667335900004 ] } },
{ "type": "Feature", "properties": { "fips_code": "0218620", "name": "Delta Junction", "regional_corporation_fips_code": "0220010", "borough_fips_code": "02240", "grid_id": 215, "ansi_code": "02419376", "dcra_code": "763EEB4F-118C-4AEA-A931-D707FE999A12", "latitude": 64.04716726, "longitude": -145.73666819, "pce_eligible": null, "pce_active": null }, "geometry": { "type": "Point", "coordinates": [ -145.736668187999982, 64.047167258000059 ] } },
{ "type": "Feature", "properties": { "fips_code": "0218675", "name": "Deltana", "regional_corporation_fips_code": "0220010", "borough_fips_code": "02240", "grid_id": 215, "ansi_code": "02418552", "dcra_code": "AB4874F1-29EA-49F7-9573-6DC9A2C45F81", "latitude": 63.88714449, "longitude": -145.17379154, "pce_eligible": null, "pce_active": null }, "geometry": { "type": "Point", "coordinates": [ -145.173791544999972, 63.887144487000057 ] } },
{ "type": "Feature", "properties": { "fips_code": "0218805", "name": "Denali Park", "regional_corporation_fips_code": "0220010", "borough_fips_code": "02068", "grid_id": 215, "ansi_code": "02418701", "dcra_code": "10BA1AD9-39AC-440F-BCE9-40BC75DAD436", "latitude": 63.73232007, "longitude": -148.91686675, "pce_eligible": null, "pce_active": null }, "geometry": { "type": "Point", "coordinates": [ -148.916866752999965, 63.732320074000029 ] } },
{ "type": "Feature", "properties": { "fips_code": "0218925", "name": "Diamond Ridge", "regional_corporation_fips_code": "0217140", "borough_fips_code": "02122", "grid_id": 215, "ansi_code": "02418553", "dcra_code": "C8495E9B-FA1E-4A9D-90EA-248D8DB63522", "latitude": 59.6761111, "longitude": -151.5575, "pce_eligible": null, "pce_active": null }, "geometry": { "type": "Point", "coordinates": [ -151.5575, 59.676111100000071 ] } },
{ "type": "Feature", "properties": { "fips_code": "0218950", "name": "Dillingham", "regional_corporation_fips_code": "0209040", "borough_fips_code": "02070", "grid_id": 169, "ansi_code": "02419377", "dcra_code": "08E18522-8DAC-4DFC-975E-26751FE81958", "latitude": 59.03937443, "longitude": -158.46307877000001, "pce_eligible": null, "pce_active": null }, "geometry": { "type": "Point", "coordinates": [ -158.463078770999971, 59.039374430000066 ] } },
{ "type": "Feature", "properties": { "fips_code": "0219060", "name": "Diomede", "regional_corporation_fips_code": "0206370", "borough_fips_code": "02180", "grid_id": 110, "ansi_code": "02419378", "dcra_code": "9E47594D-5392-4A49-8FCD-026556C904AE", "latitude": 65.75835251, "longitude": -168.95179186, "pce_eligible": null, "pce_active": null }, "geometry": { "type": "Point", "coordinates": [ -168.951791864999961, 65.758352510000066 ] } },
{ "type": "Feature", "properties": { "fips_code": "0219720", "name": "Dot Lake", "regional_corporation_fips_code": "0220010", "borough_fips_code": "02240", "grid_id": 15, "ansi_code": "02418556", "dcra_code": "03A313E3-0987-4B72-8EC9-6C92E01A12A2", "latitude": 63.65794205, "longitude": -144.05888081000001, "pce_eligible": null, "pce_active": null }, "geometry": { "type": "Point", "coordinates": [ -144.058880805999962, 63.657942046000073 ] } },
{ "type": "Feature", "properties": { "fips_code": "0219750", "name": "Dot Lake Village", "regional_corporation_fips_code": "0220010", "borough_fips_code": "02240", "grid_id": 15, "ansi_code": "02418557", "dcra_code": "4B63BED6-48D5-4881-B4C0-D73B0D2651F2", "latitude": 63.65559219, "longitude": -144.04934005000001, "pce_eligible": null, "pce_active": null }, "geometry": { "type": "Point", "coordinates": [ -144.049340050999973, 63.65559219000005 ] } },
{ "type": "Feature", "properties": { "fips_code": "0220020", "name": "Dry Creek", "regional_corporation_fips_code": "0220010", "borough_fips_code": "02240", "grid_id": null, "ansi_code": "02418559", "dcra_code": "64B2729B-A777-4917-9D20-77822FE68CFE", "latitude": 63.67518647, "longitude": -144.60181163, "pce_eligible": null, "pce_active": null }, "geometry": { "type": "Point", "coordinates": [ -144.601811627999979, 63.67518646700006 ] } },
{ "type": "Feature", "properties": { "fips_code": "0220380", "name": "Eagle", "regional_corporation_fips_code": "0220010", "borough_fips_code": "02240", "grid_id": 9, "ansi_code": "02419379", "dcra_code": "99E4149C-E691-4714-88EC-9EDCEF72C195", "latitude": 64.78893968, "longitude": -141.2075972, "pce_eligible": null, "pce_active": null }, "geometry": { "type": "Point", "coordinates": [ -141.207597202999978, 64.788939682000034 ] } },
{ "type": "Feature", "properties": { "fips_code": "0220600", "name": "Eagle Village", "regional_corporation_fips_code": "0220010", "borough_fips_code": "02240", "grid_id": 9, "ansi_code": "02418561", "dcra_code": "F6BC6030-25E0-4E0A-BA46-B294A0338BDA", "latitude": 64.74518901, "longitude": -141.04578638000001, "pce_eligible": null, "pce_active": null }, "geometry": { "type": "Point", "coordinates": [ -141.045786384, 64.745189014000061 ] } },
{ "type": "Feature", "properties": { "fips_code": "0220716", "name": "Eareckson Station", "regional_corporation_fips_code": "0201570", "borough_fips_code": "02016", "grid_id": null, "ansi_code": "02804649", "dcra_code": "17AA4233-9435-4013-B2C1-D61FBB303CCE", "latitude": 52.7246, "longitude": -185.8879, "pce_eligible": null, "pce_active": null }, "geometry": { "type": "Point", "coordinates": [ 174.1121, 52.7246 ] } },
{ "type": "Feature", "properties": { "fips_code": "0220970", "name": "Edna Bay", "regional_corporation_fips_code": "0267940", "borough_fips_code": "02198", "grid_id": null, "ansi_code": "02770983", "dcra_code": "85B7409D-F9A3-4D1C-8587-BA31448CD26E", "latitude": 55.95512271, "longitude": -133.65815775, "pce_eligible": null, "pce_active": null }, "geometry": { "type": "Point", "coordinates": [ -133.65815774899994, 55.955122709000079 ] } },
{ "type": "Feature", "properties": { "fips_code": "0221040", "name": "Eek", "regional_corporation_fips_code": "0209800", "borough_fips_code": "02050", "grid_id": 41, "ansi_code": "02419380", "dcra_code": "59543E82-DA08-4E48-BAA3-B0E7C0FF4767", "latitude": 60.21890592, "longitude": -162.02949727000001, "pce_eligible": null, "pce_active": null }, "geometry": { "type": "Point", "coordinates": [ -162.029497265999964, 60.21890591600004 ] } },
{ "type": "Feature", "properties": { "fips_code": "0221150", "name": "Egegik", "regional_corporation_fips_code": "0209040", "borough_fips_code": "02164", "grid_id": 111, "ansi_code": "02419381", "dcra_code": "F7D03E2F-5588-4343-BE94-44E824B7A836", "latitude": 58.20907023, "longitude": -157.37575053, "pce_eligible": null, "pce_active": null }, "geometry": { "type": "Point", "coordinates": [ -157.375750532999973, 58.20907023400008 ] } },
{ "type": "Feature", "properties": { "fips_code": "0221370", "name": "Eielson AFB", "regional_corporation_fips_code": "0220010", "borough_fips_code": "02090", "grid_id": 215, "ansi_code": "02418568", "dcra_code": "A74F371F-C334-4DC3-88A4-A4FCC1B1E8FD", "latitude": 64.6701432, "longitude": -147.08105662, "pce_eligible": null, "pce_active": null }, "geometry": { "type": "Point", "coordinates": [ -147.081056622999967, 64.670143197000073 ] } },
{ "type": "Feature", "properties": { "fips_code": "0221810", "name": "Ekwok", "regional_corporation_fips_code": "0209040", "borough_fips_code": "02070", "grid_id": 65, "ansi_code": "02419382", "dcra_code": "FAF5958B-8A56-4E28-B3B1-66B772A5A166", "latitude": 59.35024427, "longitude": -157.47804697000001, "pce_eligible": null, "pce_active": null }, "geometry": { "type": "Point", "coordinates": [ -157.478046972999977, 59.350244272000054 ] } },
{ "type": "Feature", "properties": { "fips_code": "0222140", "name": "Elfin Cove", "regional_corporation_fips_code": "0267940", "borough_fips_code": "02105", "grid_id": 112, "ansi_code": "02418572", "dcra_code": "4BAA8104-672E-401E-88E8-341E10A478B8", "latitude": 58.19391484, "longitude": -136.3454861, "pce_eligible": null, "pce_active": null }, "geometry": { "type": "Point", "coordinates": [ -136.345486097999981, 58.193914843000073 ] } },
{ "type": "Feature", "properties": { "fips_code": "0222250", "name": "Elim", "regional_corporation_fips_code": "0206370", "borough_fips_code": "02180", "grid_id": 43, "ansi_code": "02419383", "dcra_code": "962DB38D-BABD-43F0-AF8E-6B3C0964C131", "latitude": 64.61655211, "longitude": -162.26450688, "pce_eligible": null, "pce_active": null }, "geometry": { "type": "Point", "coordinates": [ -162.264506881999978, 64.616552109000054 ] } },
{ "type": "Feature", "properties": { "fips_code": "0222910", "name": "Emmonak", "regional_corporation_fips_code": "0209800", "borough_fips_code": "02270", "grid_id": 45, "ansi_code": "02419384", "dcra_code": "6E142FF4-3A51-4D60-9F7A-8B65E66A9133", "latitude": 62.77694738, "longitude": -164.52984686, "pce_eligible": null, "pce_active": null }, "geometry": { "type": "Point", "coordinates": [ -164.529846856999967, 62.776947383000049 ] } },
{ "type": "Feature", "properties": { "fips_code": "0223460", "name": "Ester", "regional_corporation_fips_code": "0220010", "borough_fips_code": "02090", "grid_id": 215, "ansi_code": "02418574", "dcra_code": "C975E5F6-90CB-420B-9766-C43941847789", "latitude": 64.85543162, "longitude": -147.97679327, "pce_eligible": null, "pce_active": null }, "geometry": { "type": "Point", "coordinates": [ -147.976793266999977, 64.855431618000068 ] } },
{ "type": "Feature", "properties": { "fips_code": "0223720", "name": "Eureka Roadhouse", "regional_corporation_fips_code": "0200590", "borough_fips_code": "02170", "grid_id": null, "ansi_code": "02582711", "dcra_code": "463333A9-778A-4087-B2B6-C834DF7F1809", "latitude": 61.9386111, "longitude": -147.1680556, "pce_eligible": null, "pce_active": null }, "geometry": { "type": "Point", "coordinates": [ -147.168055599999974, 61.93861110000006 ] } },
{ "type": "Feature", "properties": { "fips_code": "0223790", "name": "Evansville", "regional_corporation_fips_code": "0220010", "borough_fips_code": "02290", "grid_id": 7, "ansi_code": "02418576", "dcra_code": "FF9ACB36-15C3-4C3B-831F-7686F69D80ED", "latitude": 66.92462485, "longitude": -151.50578451000001, "pce_eligible": null, "pce_active": null }, "geometry": { "type": "Point", "coordinates": [ -151.505784505999969, 66.924624845000039 ] } },
{ "type": "Feature", "properties": { "fips_code": "0223900", "name": "Excursion Inlet", "regional_corporation_fips_code": "0267940", "borough_fips_code": "02100", "grid_id": null, "ansi_code": "02418577", "dcra_code": "E209147C-83F5-4D19-AD3F-CB78B1F679F5", "latitude": 58.41682002, "longitude": -135.44314779000001, "pce_eligible": null, "pce_active": null }, "geometry": { "type": "Point", "coordinates": [ -135.443147792, 58.416820017000077 ] } },
{ "type": "Feature", "properties": { "fips_code": "0224230", "name": "Fairbanks", "regional_corporation_fips_code": "0220010", "borough_fips_code": "02090", "grid_id": 215, "ansi_code": "02419385", "dcra_code": "7102AFBB-6F0A-4C7A-92FF-6F5A6D66AB18", "latitude": 64.83969225, "longitude": -147.72124822000001, "pce_eligible": null, "pce_active": null }, "geometry": { "type": "Point", "coordinates": [ -147.72124821899996, 64.839692250000041 ] } },
{ "type": "Feature", "properties": { "fips_code": "0224660", "name": "False Pass", "regional_corporation_fips_code": "0201570", "borough_fips_code": "02013", "grid_id": 113, "ansi_code": "02419386", "dcra_code": "223C147A-542C-4057-8AE2-C5C99FC10AB1", "latitude": 54.85503086, "longitude": -163.41473878, "pce_eligible": null, "pce_active": null }, "geometry": { "type": "Point", "coordinates": [ -163.414738779999965, 54.855030858000077 ] } },
{ "type": "Feature", "properties": { "fips_code": "0225000", "name": "Farm Loop", "regional_corporation_fips_code": "0217140", "borough_fips_code": "02170", "grid_id": 215, "ansi_code": "02418580", "dcra_code": "803C9DC0-CB68-4FB4-8746-A65C69A5905F", "latitude": 61.64000731, "longitude": -149.14533535000001, "pce_eligible": null, "pce_active": null }, "geometry": { "type": "Point", "coordinates": [ -149.145335351999961, 61.640007310000044 ] } },
{ "type": "Feature", "properties": { "fips_code": "0224980", "name": "Farmers Loop", "regional_corporation_fips_code": "0220010", "borough_fips_code": "02090", "grid_id": 215, "ansi_code": "02582712", "dcra_code": "69F4E278-CF90-4297-B76E-3E6C8AF33FFF", "latitude": 64.88981073, "longitude": -147.76059729, "pce_eligible": null, "pce_active": null }, "geometry": { "type": "Point", "coordinates": [ -147.760597289999964, 64.889810734000037 ] } },
{ "type": "Feature", "properties": { "fips_code": "0225220", "name": "Ferry", "regional_corporation_fips_code": "0220010", "borough_fips_code": "02068", "grid_id": 215, "ansi_code": "02418581", "dcra_code": "6271DC39-C422-443B-AB71-71A2246047FD", "latitude": 64.01708593, "longitude": -149.11573078000001, "pce_eligible": null, "pce_active": null }, "geometry": { "type": "Point", "coordinates": [ -149.115730781999957, 64.01708592600005 ] } },
{ "type": "Feature", "properties": { "fips_code": "0225550", "name": "Fishhook", "regional_corporation_fips_code": "0217140", "borough_fips_code": "02170", "grid_id": 215, "ansi_code": "02418582", "dcra_code": "90DA2B6B-1B09-4D7A-A466-E6B55B21AEE8", "latitude": 61.69322118, "longitude": -149.24867697, "pce_eligible": null, "pce_active": null }, "geometry": { "type": "Point", "coordinates": [ -149.248676969999963, 61.693221176000065 ] } },
{ "type": "Feature", "properties": { "fips_code": "0225880", "name": "Flat", "regional_corporation_fips_code": "0220010", "borough_fips_code": "02290", "grid_id": null, "ansi_code": "02418583", "dcra_code": "3C695476-5C5E-4120-9E30-BF42C37A0EAF", "latitude": 62.4536, "longitude": -158.0075, "pce_eligible": null, "pce_active": null }, "geometry": { "type": "Point", "coordinates": [ -158.0075, 62.4536 ] } },
{ "type": "Feature", "properties": { "fips_code": "0226100", "name": "Fort Greely", "regional_corporation_fips_code": "0220010", "borough_fips_code": "02240", "grid_id": 215, "ansi_code": "02418584", "dcra_code": "025A0F26-3C9F-4F08-ADB2-F18FEC8DF739", "latitude": 63.99181799, "longitude": -145.72394043, "pce_eligible": null, "pce_active": null }, "geometry": { "type": "Point", "coordinates": [ -145.723940429999971, 63.991817993000041 ] } },
{ "type": "Feature", "properties": { "fips_code": "0226760", "name": "Fort Yukon", "regional_corporation_fips_code": "0220010", "borough_fips_code": "02290", "grid_id": 119, "ansi_code": "02419387", "dcra_code": "641D75DC-10FB-4C68-9F27-A8720C97B6C0", "latitude": 66.5661669, "longitude": -145.24128376, "pce_eligible": null, "pce_active": null }, "geometry": { "type": "Point", "coordinates": [ -145.241283755999973, 66.566166896000084 ] } },
{ "type": "Feature", "properties": { "fips_code": "0226835", "name": "Four Mile Road", "regional_corporation_fips_code": "0220010", "borough_fips_code": "02290", "grid_id": 215, "ansi_code": "02418586", "dcra_code": "1A2DC081-51F5-4F8F-AE9B-516B4A83C31C", "latitude": 64.6003, "longitude": -149.1179, "pce_eligible": null, "pce_active": null }, "geometry": { "type": "Point", "coordinates": [ -149.1179, 64.6003 ] } },
{ "type": "Feature", "properties": { "fips_code": "0226870", "name": "Fox", "regional_corporation_fips_code": "0220010", "borough_fips_code": "02090", "grid_id": 215, "ansi_code": "02418588", "dcra_code": "DF0AA24E-FAFB-4033-9E30-014BC53D341A", "latitude": 64.9581, "longitude": -147.6183, "pce_eligible": null, "pce_active": null }, "geometry": { "type": "Point", "coordinates": [ -147.6183, 64.9581 ] } },
{ "type": "Feature", "properties": { "fips_code": "0226910", "name": "Fox River", "regional_corporation_fips_code": "0217140", "borough_fips_code": "02122", "grid_id": 215, "ansi_code": "02418589", "dcra_code": "B93DB68F-0ECD-4E8C-8511-88FA35BB40CF", "latitude": 59.85351563, "longitude": -150.91597622, "pce_eligible": null, "pce_active": null }, "geometry": { "type": "Point", "coordinates": [ -150.915976217999969, 59.853515630000061 ] } },
{ "type": "Feature", "properties": { "fips_code": "0227090", "name": "Fritz Creek", "regional_corporation_fips_code": "0217140", "borough_fips_code": "02122", "grid_id": 215, "ansi_code": "02418590", "dcra_code": "4B339CC2-7B7F-4B2F-8003-C1DE90E459CD", "latitude": 59.7254375, "longitude": -151.29865991, "pce_eligible": null, "pce_active": null }, "geometry": { "type": "Point", "coordinates": [ -151.298659905999983, 59.72543749700003 ] } },
{ "type": "Feature", "properties": { "fips_code": "0227145", "name": "Funny River", "regional_corporation_fips_code": "0217140", "borough_fips_code": "02122", "grid_id": 215, "ansi_code": "02418591", "dcra_code": "CF70B6E1-31BB-4019-97D8-DD470A6AD914", "latitude": 60.5019444, "longitude": -150.7622222, "pce_eligible": null, "pce_active": null }, "geometry": { "type": "Point", "coordinates": [ -150.762222199999968, 60.50194440000007 ] } },
{ "type": "Feature", "properties": { "fips_code": "0227420", "name": "Gakona", "regional_corporation_fips_code": "0200590", "borough_fips_code": "02066", "grid_id": null, "ansi_code": "02418593", "dcra_code": "ED284F88-6827-4DC4-B028-5F0BFA6CF129", "latitude": 62.30189681, "longitude": -145.30187315000001, "pce_eligible": null, "pce_active": null }, "geometry": { "type": "Point", "coordinates": [ -145.301873153999964, 62.301896813000042 ] } },
{ "type": "Feature", "properties": { "fips_code": "0227530", "name": "Galena", "regional_corporation_fips_code": "0220010", "borough_fips_code": "02290", "grid_id": 115, "ansi_code": "02419388", "dcra_code": "9CB98028-F75A-4D46-A951-AB787D2CF82E", "latitude": 64.74265286000001, "longitude": -156.87712316, "pce_eligible": null, "pce_active": null }, "geometry": { "type": "Point", "coordinates": [ -156.877123160999957, 64.742652856000063 ] } },
{ "type": "Feature", "properties": { "fips_code": "0227640", "name": "Gambell", "regional_corporation_fips_code": "0206370", "borough_fips_code": "02180", "grid_id": 46, "ansi_code": "02419389", "dcra_code": "961462BD-8155-4FFF-863B-A652CC389066", "latitude": 63.77688454, "longitude": -171.71882642, "pce_eligible": null, "pce_active": null }, "geometry": { "type": "Point", "coordinates": [ -171.718826415999985, 63.776884537000058 ] } },
{ "type": "Feature", "properties": { "fips_code": "0227700", "name": "Game Creek", "regional_corporation_fips_code": "0267940", "borough_fips_code": "02105", "grid_id": null, "ansi_code": "02418596", "dcra_code": "6506427D-91A9-4004-B55F-B5D8AC6ECBEC", "latitude": 58.05586863, "longitude": -135.50986598, "pce_eligible": null, "pce_active": null }, "geometry": { "type": "Point", "coordinates": [ -135.509865975999958, 58.055868630000077 ] } },
{ "type": "Feature", "properties": { "fips_code": "0228200", "name": "Gateway", "regional_corporation_fips_code": "0217140", "borough_fips_code": "02170", "grid_id": 215, "ansi_code": "02418597", "dcra_code": "A1A00D41-E402-42E4-B4DE-FF2EE4036F66", "latitude": 61.57408532, "longitude": -149.23996944000001, "pce_eligible": null, "pce_active": null }, "geometry": { "type": "Point", "coordinates": [ -149.239969438999964, 61.57408532200003 ] } },
{ "type": "Feature", "properties": { "fips_code": "0228590", "name": "Glacier View", "regional_corporation_fips_code": "0217140", "borough_fips_code": "02170", "grid_id": 216, "ansi_code": "02418599", "dcra_code": "723F2211-DF24-4A26-B478-AC2F7B43D3AF", "latitude": 61.79346959, "longitude": -147.72600629, "pce_eligible": null, "pce_active": null }, "geometry": { "type": "Point", "coordinates": [ -147.726006287999979, 61.793469591000076 ] } },
{ "type": "Feature", "properties": { "fips_code": "0228740", "name": "Glennallen", "regional_corporation_fips_code": "0200590", "borough_fips_code": "02066", "grid_id": 216, "ansi_code": "02418600", "dcra_code": "0F6D14AC-19B0-4FFB-87AF-FBC82152C2A8", "latitude": 62.11266845, "longitude": -145.52778197000001, "pce_eligible": null, "pce_active": null }, "geometry": { "type": "Point", "coordinates": [ -145.527781971999957, 62.112668453000083 ] } },
{ "type": "Feature", "properties": { "fips_code": "0229130", "name": "Goldstream", "regional_corporation_fips_code": "0220010", "borough_fips_code": "02090", "grid_id": 215, "ansi_code": "02582713", "dcra_code": "C63A334D-9CE5-410F-9042-CB548BBECC87", "latitude": 64.9273104, "longitude": -147.87946723, "pce_eligible": null, "pce_active": null }, "geometry": { "type": "Point", "coordinates": [ -147.879467232999957, 64.927310398000031 ] } },
{ "type": "Feature", "properties": { "fips_code": "0229180", "name": "Golovin", "regional_corporation_fips_code": "0206370", "borough_fips_code": "02180", "grid_id": 117, "ansi_code": "02419390", "dcra_code": "D18E8CFB-89C1-437A-ADAA-399023E0587C", "latitude": 64.54239095, "longitude": -163.03671154, "pce_eligible": null, "pce_active": null }, "geometry": { "type": "Point", "coordinates": [ -163.03671153999997, 64.542390951000073 ] } },
{ "type": "Feature", "properties": { "fips_code": "0229290", "name": "Goodnews Bay", "regional_corporation_fips_code": "0209800", "borough_fips_code": "02050", "grid_id": 47, "ansi_code": "02419391", "dcra_code": "86CBBCFB-1DC1-4C75-A1A2-84F6C19F0635", "latitude": 59.11822517, "longitude": -161.58225677, "pce_eligible": null, "pce_active": null }, "geometry": { "type": "Point", "coordinates": [ -161.582256769999958, 59.118225167000048 ] } },
{ "type": "Feature", "properties": { "fips_code": "0230060", "name": "Grayling", "regional_corporation_fips_code": "0220010", "borough_fips_code": "02290", "grid_id": 48, "ansi_code": "02419392", "dcra_code": "DD04D244-B150-4D0C-83D9-26AAE567CC97", "latitude": 62.90643891, "longitude": -160.06572812, "pce_eligible": null, "pce_active": null }, "geometry": { "type": "Point", "coordinates": [ -160.06572811999996, 62.906438910000077 ] } },
{ "type": "Feature", "properties": { "fips_code": "0230500", "name": "Gulkana", "regional_corporation_fips_code": "0200590", "borough_fips_code": "02066", "grid_id": 216, "ansi_code": "02418605", "dcra_code": "5A851423-1D34-45BF-9EE7-8765E762667F", "latitude": 62.26858008, "longitude": -145.37187803, "pce_eligible": null, "pce_active": null }, "geometry": { "type": "Point", "coordinates": [ -145.371878033999963, 62.268580084000064 ] } },
{ "type": "Feature", "properties": { "fips_code": "0230940", "name": "Gustavus", "regional_corporation_fips_code": "0267940", "borough_fips_code": "02105", "grid_id": 118, "ansi_code": "02419393", "dcra_code": "3D5231FD-4F19-414E-A871-FAFF3941FF8F", "latitude": 58.41334287, "longitude": -135.73906162, "pce_eligible": null, "pce_active": null }, "geometry": { "type": "Point", "coordinates": [ -135.739061618, 58.413342870000065 ] } },
{ "type": "Feature", "properties": { "fips_code": "0231050", "name": "Haines", "regional_corporation_fips_code": "0267940", "borough_fips_code": "02100", "grid_id": 32, "ansi_code": "02418606", "dcra_code": "0E1213D7-970C-4532-B874-5742D6D4989B", "latitude": 59.23431397, "longitude": -135.44787598, "pce_eligible": null, "pce_active": null }, "geometry": { "type": "Point", "coordinates": [ -135.447875976999967, 59.234313965000069 ] } },
{ "type": "Feature", "properties": { "fips_code": "0231270", "name": "Halibut Cove", "regional_corporation_fips_code": "0217140", "borough_fips_code": "02122", "grid_id": 215, "ansi_code": "02418607", "dcra_code": "74696C73-F1AA-4DBA-8D8F-2D4FFAEFCC7E", "latitude": 59.59769795, "longitude": -151.22378748, "pce_eligible": null, "pce_active": null }, "geometry": { "type": "Point", "coordinates": [ -151.22378747999997, 59.59769794500005 ] } },
{ "type": "Feature", "properties": { "fips_code": "0231710", "name": "Happy Valley", "regional_corporation_fips_code": "0217140", "borough_fips_code": "02122", "grid_id": 215, "ansi_code": "02418610", "dcra_code": "452DEEAD-0063-4786-BCAF-5835043C441F", "latitude": 59.93501064, "longitude": -151.73800293, "pce_eligible": null, "pce_active": null }, "geometry": { "type": "Point", "coordinates": [ -151.738002931999972, 59.935010644000045 ] } },
{ "type": "Feature", "properties": { "fips_code": "0231765", "name": "Harding-Birch Lakes", "regional_corporation_fips_code": "0220010", "borough_fips_code": "02090", "grid_id": 215, "ansi_code": "02418611", "dcra_code": "55DEA83C-221E-4084-B00F-536B59BE5069", "latitude": 64.37150719, "longitude": -146.59929367000001, "pce_eligible": null, "pce_active": null }, "geometry": { "type": "Point", "coordinates": [ -146.599293665999966, 64.37150719300007 ] } },
{ "type": "Feature", "properties": { "fips_code": "0232150", "name": "Healy", "regional_corporation_fips_code": "0220010", "borough_fips_code": "02068", "grid_id": 215, "ansi_code": "02418612", "dcra_code": "8905A89B-A676-4C0A-BEB5-C17AD570F833", "latitude": 63.87038443, "longitude": -149.00584489, "pce_eligible": null, "pce_active": null }, "geometry": { "type": "Point", "coordinates": [ -149.005844885999977, 63.870384426000044 ] } },
{ "type": "Feature", "properties": { "fips_code": "0232310", "name": "Healy Lake", "regional_corporation_fips_code": "0220010", "borough_fips_code": "02240", "grid_id": 11, "ansi_code": "02418614", "dcra_code": "093A0B52-9C15-4F33-8872-681E456A939D", "latitude": 63.99992871, "longitude": -144.73348817, "pce_eligible": null, "pce_active": null }, "geometry": { "type": "Point", "coordinates": [ -144.733488171999966, 63.999928713000031 ] } },
{ "type": "Feature", "properties": { "fips_code": "0232550", "name": "Hobart Bay", "regional_corporation_fips_code": "0267940", "borough_fips_code": "02195", "grid_id": null, "ansi_code": "02418615", "dcra_code": "6882E91E-F23E-4649-BC1E-168B1173F2E7", "latitude": 57.46425365, "longitude": -133.34780625, "pce_eligible": null, "pce_active": null }, "geometry": { "type": "Point", "coordinates": [ -133.347806251999941, 57.464253653000071 ] } },
{ "type": "Feature", "properties": { "fips_code": "0232810", "name": "Hollis", "regional_corporation_fips_code": "0267940", "borough_fips_code": "02198", "grid_id": 23, "ansi_code": "02418616", "dcra_code": "6B0D4814-B112-41E9-8F10-11A29507E7CA", "latitude": 55.4822323, "longitude": -132.6500231, "pce_eligible": null, "pce_active": null }, "geometry": { "type": "Point", "coordinates": [ -132.650023103999956, 55.482232297000053 ] } },
{ "type": "Feature", "properties": { "fips_code": "0233030", "name": "Holy Cross", "regional_corporation_fips_code": "0220010", "borough_fips_code": "02290", "grid_id": 49, "ansi_code": "02419394", "dcra_code": "6F84CE74-EDA0-4424-A080-4A7C0F08E5DF", "latitude": 62.1984422, "longitude": -159.77182893, "pce_eligible": null, "pce_active": null }, "geometry": { "type": "Point", "coordinates": [ -159.771828932999966, 62.198442202000081 ] } },
{ "type": "Feature", "properties": { "fips_code": "0233140", "name": "Homer", "regional_corporation_fips_code": "0217140", "borough_fips_code": "02122", "grid_id": 215, "ansi_code": "02419395", "dcra_code": "74B62695-129C-4E06-A228-C50EFCC9A872", "latitude": 59.64718757, "longitude": -151.53200662, "pce_eligible": null, "pce_active": null }, "geometry": { "type": "Point", "coordinates": [ -151.532006618999958, 59.647187571000075 ] } },
{ "type": "Feature", "properties": { "fips_code": "0233360", "name": "Hoonah", "regional_corporation_fips_code": "0267940", "borough_fips_code": "02105", "grid_id": 128, "ansi_code": "02419396", "dcra_code": "67C77481-D454-4AD4-8099-C6A3005285DE", "latitude": 58.10953807, "longitude": -135.44570828, "pce_eligible": null, "pce_active": null }, "geometry": { "type": "Point", "coordinates": [ -135.445708277999984, 58.109538071000031 ] } },
{ "type": "Feature", "properties": { "fips_code": "0233470", "name": "Hooper Bay", "regional_corporation_fips_code": "0209800", "borough_fips_code": "02270", "grid_id": 50, "ansi_code": "02419397", "dcra_code": "8D01840C-135C-49A1-A1FE-5C63881EEF8A", "latitude": 61.53087969, "longitude": -166.09643323, "pce_eligible": null, "pce_active": null }, "geometry": { "type": "Point", "coordinates": [ -166.096433228999985, 61.530879691000052 ] } },
{ "type": "Feature", "properties": { "fips_code": "0233580", "name": "Hope", "regional_corporation_fips_code": "0217140", "borough_fips_code": "02122", "grid_id": 215, "ansi_code": "02418620", "dcra_code": "B94A5304-F56C-49FE-A615-8E72E73F6255", "latitude": 60.91793289, "longitude": -149.62222901000001, "pce_eligible": null, "pce_active": null }, "geometry": { "type": "Point", "coordinates": [ -149.622229008999966, 60.917932890000031 ] } },
{ "type": "Feature", "properties": { "fips_code": "0233800", "name": "Houston", "regional_corporation_fips_code": "0217140", "borough_fips_code": "02170", "grid_id": 215, "ansi_code": "02419398", "dcra_code": "15846556-C6AB-448D-B51D-2DE0E8727969", "latitude": 61.6312394, "longitude": -149.80142669, "pce_eligible": null, "pce_active": null }, "geometry": { "type": "Point", "coordinates": [ -149.801426691999978, 61.631239404000041 ] } },
{ "type": "Feature", "properties": { "fips_code": "0233910", "name": "Hughes", "regional_corporation_fips_code": "0220010", "borough_fips_code": "02290", "grid_id": 120, "ansi_code": "02419399", "dcra_code": "9D089209-6790-456D-85A0-4D3282C8B989", "latitude": 66.04587278, "longitude": -154.25821908, "pce_eligible": null, "pce_active": null }, "geometry": { "type": "Point", "coordinates": [ -154.258219077999968, 66.04587278300005 ] } },
{ "type": "Feature", "properties": { "fips_code": "0234350", "name": "Huslia", "regional_corporation_fips_code": "0220010", "borough_fips_code": "02290", "grid_id": 51, "ansi_code": "02419400", "dcra_code": "049CEFC6-7BD3-4DA4-98C6-3D0DBE9942E3", "latitude": 65.70183545, "longitude": -156.39470172, "pce_eligible": null, "pce_active": null }, "geometry": { "type": "Point", "coordinates": [ -156.394701717999965, 65.701835453000058 ] } },
{ "type": "Feature", "properties": { "fips_code": "0234460", "name": "Hydaburg", "regional_corporation_fips_code": "0267940", "borough_fips_code": "02198", "grid_id": 23, "ansi_code": "02419401", "dcra_code": "BDF65BBA-7D3D-4EFD-8DC7-59E48EA68082", "latitude": 55.2059259, "longitude": -132.8235136, "pce_eligible": null, "pce_active": null }, "geometry": { "type": "Point", "coordinates": [ -132.823513599999956, 55.205925898000032 ] } },
{ "type": "Feature", "properties": { "fips_code": "0234570", "name": "Hyder", "regional_corporation_fips_code": "0267940", "borough_fips_code": "02198", "grid_id": null, "ansi_code": "02418624", "dcra_code": "BC2CDE0E-83BC-4AC5-8095-1EB202D71049", "latitude": 55.9157523, "longitude": -130.02551423, "pce_eligible": null, "pce_active": null }, "geometry": { "type": "Point", "coordinates": [ -130.025514230999988, 55.915752303000033 ] } },
{ "type": "Feature", "properties": { "fips_code": "0234790", "name": "Igiugig", "regional_corporation_fips_code": "0209040", "borough_fips_code": "02164", "grid_id": 121, "ansi_code": "02418626", "dcra_code": "729C1584-C0E2-49D1-B9B4-275E3D55B9D1", "latitude": 59.32534731, "longitude": -155.90354017000001, "pce_eligible": null, "pce_active": null }, "geometry": { "type": "Point", "coordinates": [ -155.903540169999957, 59.32534731100003 ] } },
{ "type": "Feature", "properties": { "fips_code": "0235120", "name": "Iliamna", "regional_corporation_fips_code": "0209040", "borough_fips_code": "02164", "grid_id": 123, "ansi_code": "02418628", "dcra_code": "5ADEA6FC-9615-4F6E-9B68-F73ADD743B06", "latitude": 59.7547, "longitude": -154.9061, "pce_eligible": null, "pce_active": null }, "geometry": { "type": "Point", "coordinates": [ -154.9061, 59.7547 ] } },
{ "type": "Feature", "properties": { "fips_code": "0235890", "name": "Ivanof Bay", "regional_corporation_fips_code": "0209040", "borough_fips_code": "02164", "grid_id": null, "ansi_code": "02418633", "dcra_code": "1D96F2EA-F1A3-4CC9-868D-090FD22E1CD6", "latitude": 55.90343422, "longitude": -159.48416326, "pce_eligible": null, "pce_active": null }, "geometry": { "type": "Point", "coordinates": [ -159.484163259999974, 55.903434216000051 ] } },
{ "type": "Feature", "properties": { "fips_code": "0236400", "name": "Juneau", "regional_corporation_fips_code": "0267940", "borough_fips_code": "02110", "grid_id": 222, "ansi_code": "02419344", "dcra_code": "E5B6208B-DD7F-4DBA-951C-0C5D616E79BF", "latitude": 58.29983971, "longitude": -134.40663973, "pce_eligible": null, "pce_active": null }, "geometry": { "type": "Point", "coordinates": [ -134.406639727999959, 58.29983971300004 ] } },
{ "type": "Feature", "properties": { "fips_code": "0236540", "name": "Kachemak", "regional_corporation_fips_code": "0217140", "borough_fips_code": "02122", "grid_id": 215, "ansi_code": "02419402", "dcra_code": "3D257994-65F8-4489-A35E-C42F284CB327", "latitude": 59.66696928, "longitude": -151.45273429, "pce_eligible": null, "pce_active": null }, "geometry": { "type": "Point", "coordinates": [ -151.452734287999959, 59.666969275000042 ] } },
{ "type": "Feature", "properties": { "fips_code": "0236770", "name": "Kake", "regional_corporation_fips_code": "0267940", "borough_fips_code": "02198", "grid_id": 129, "ansi_code": "02419403", "dcra_code": "2F5F6904-B47C-439D-9AC1-64135C4403A6", "latitude": 56.97444988, "longitude": -133.9447988, "pce_eligible": null, "pce_active": null }, "geometry": { "type": "Point", "coordinates": [ -133.944798804999948, 56.974449880000066 ] } },
{ "type": "Feature", "properties": { "fips_code": "0236990", "name": "Kaktovik", "regional_corporation_fips_code": "0203950", "borough_fips_code": "02185", "grid_id": 162, "ansi_code": "02419404", "dcra_code": "9B8441F9-AEFE-4E1D-BD2C-725FCCBB0299", "latitude": 70.12661247, "longitude": -143.6128541, "pce_eligible": null, "pce_active": null }, "geometry": { "type": "Point", "coordinates": [ -143.612854105, 70.126612468000076 ] } },
{ "type": "Feature", "properties": { "fips_code": "0237250", "name": "Kalifornsky", "regional_corporation_fips_code": "0217140", "borough_fips_code": "02122", "grid_id": 215, "ansi_code": "02418637", "dcra_code": "644B47A1-3B29-48C4-8EF0-4585B2204F2E", "latitude": 60.487797103261101, "longitude": -151.15524869328399, "pce_eligible": null, "pce_active": null }, "geometry": { "type": "Point", "coordinates": [ -151.155248693284165, 60.487797103261059 ] } },
{ "type": "Feature", "properties": { "fips_code": "0237430", "name": "Kaltag", "regional_corporation_fips_code": "0220010", "borough_fips_code": "02290", "grid_id": 54, "ansi_code": "02419405", "dcra_code": "5790AC9E-408E-42C0-BDC7-490DB0451EAD", "latitude": 64.32656393000001, "longitude": -158.72493203, "pce_eligible": null, "pce_active": null }, "geometry": { "type": "Point", "coordinates": [ -158.724932025999976, 64.326563933000045 ] } },
{ "type": "Feature", "properties": { "fips_code": "0237540", "name": "Karluk", "regional_corporation_fips_code": "0241640", "borough_fips_code": "02150", "grid_id": 92, "ansi_code": "02418642", "dcra_code": "BF30433A-BCB7-443D-A9C4-767CA6C76820", "latitude": 57.56248915, "longitude": -154.43668249000001, "pce_eligible": null, "pce_active": null }, "geometry": { "type": "Point", "coordinates": [ -154.436682488999963, 57.562489154000048 ] } },
{ "type": "Feature", "properties": { "fips_code": "0237650", "name": "Kasaan", "regional_corporation_fips_code": "0267940", "borough_fips_code": "02198", "grid_id": 23, "ansi_code": "02419406", "dcra_code": "559A9BCF-E97B-4506-925E-E21FB8E9FED9", "latitude": 55.53962256, "longitude": -132.40392924, "pce_eligible": null, "pce_active": null }, "geometry": { "type": "Point", "coordinates": [ -132.403929235999954, 55.539622558000076 ] } },
{ "type": "Feature", "properties": { "fips_code": "0237975", "name": "Kasigluk", "regional_corporation_fips_code": "0209800", "borough_fips_code": "02050", "grid_id": 55, "ansi_code": "02418645", "dcra_code": "3816D857-92C5-45BF-B884-7D2529E878D4", "latitude": 60.89457329, "longitude": -162.51946956, "pce_eligible": null, "pce_active": null }, "geometry": { "type": "Point", "coordinates": [ -162.519469560999966, 60.894573294000054 ] } },
{ "type": "Feature", "properties": { "fips_code": "0238090", "name": "Kasilof", "regional_corporation_fips_code": "0217140", "borough_fips_code": "02122", "grid_id": 215, "ansi_code": "02418646", "dcra_code": "CB8D5160-2521-4803-9207-2BBA48832C17", "latitude": 60.32493784, "longitude": -151.25684667, "pce_eligible": null, "pce_active": null }, "geometry": { "type": "Point", "coordinates": [ -151.256846669999959, 60.324937838000039 ] } },
{ "type": "Feature", "properties": { "fips_code": "0238420", "name": "Kenai", "regional_corporation_fips_code": "0217140", "borough_fips_code": "02122", "grid_id": 215, "ansi_code": "02419407", "dcra_code": "C4939227-7B0D-42C1-9C0D-69118EE45B96", "latitude": 60.5590139, "longitude": -151.24880589, "pce_eligible": null, "pce_active": null }, "geometry": { "type": "Point", "coordinates": [ -151.248805892999968, 60.559013895000078 ] } },
{ "type": "Feature", "properties": { "fips_code": "0238910", "name": "Kenny Lake", "regional_corporation_fips_code": "0200590", "borough_fips_code": "02066", "grid_id": 216, "ansi_code": "02418649", "dcra_code": "FF44E793-74FE-4F17-9EB7-78D774DF5F63", "latitude": 61.7374181, "longitude": -144.94740603, "pce_eligible": null, "pce_active": null }, "geometry": { "type": "Point", "coordinates": [ -144.947406034999972, 61.737418103000039 ] } },
{ "type": "Feature", "properties": { "fips_code": "0238970", "name": "Ketchikan", "regional_corporation_fips_code": "0267940", "borough_fips_code": "02130", "grid_id": 217, "ansi_code": "02419408", "dcra_code": "081D88E7-5D78-4E36-AC3C-F753262F026C", "latitude": 55.34243333, "longitude": -131.64802329, "pce_eligible": null, "pce_active": null }, "geometry": { "type": "Point", "coordinates": [ -131.648023286999944, 55.342433328000027 ] } },
{ "type": "Feature", "properties": { "fips_code": "0239300", "name": "Kiana", "regional_corporation_fips_code": "0252120", "borough_fips_code": "02188", "grid_id": 57, "ansi_code": "02419409", "dcra_code": "A1701483-F114-4FB2-A478-D0F6039C3EA8", "latitude": 66.97420282, "longitude": -160.43731917, "pce_eligible": null, "pce_active": null }, "geometry": { "type": "Point", "coordinates": [ -160.43731916699997, 66.974202818000037 ] } },
{ "type": "Feature", "properties": { "fips_code": "0239410", "name": "King Cove", "regional_corporation_fips_code": "0201570", "borough_fips_code": "02013", "grid_id": 131, "ansi_code": "02419410", "dcra_code": "E3FB0AD1-05D8-4D22-919A-F24830556C1F", "latitude": 55.05950824, "longitude": -162.31126632, "pce_eligible": null, "pce_active": null }, "geometry": { "type": "Point", "coordinates": [ -162.311266318999969, 55.059508243000039 ] } },
{ "type": "Feature", "properties": { "fips_code": "0239630", "name": "King Salmon", "regional_corporation_fips_code": "0209040", "borough_fips_code": "02060", "grid_id": 150, "ansi_code": "02418653", "dcra_code": "DEFFD70D-72D8-4A79-B7DF-81586E965AFF", "latitude": 58.68137127, "longitude": -156.66764668, "pce_eligible": null, "pce_active": null }, "geometry": { "type": "Point", "coordinates": [ -156.667646677999983, 58.681371268000078 ] } },
{ "type": "Feature", "properties": { "fips_code": "0239740", "name": "Kipnuk", "regional_corporation_fips_code": "0209800", "borough_fips_code": "02050", "grid_id": 132, "ansi_code": "02418657", "dcra_code": "6A1D2CBB-7422-4993-9496-87DE4AB29609", "latitude": 59.9363864, "longitude": -164.03794006000001, "pce_eligible": null, "pce_active": null }, "geometry": { "type": "Point", "coordinates": [ -164.037940060999972, 59.936386399000071 ] } },
{ "type": "Feature", "properties": { "fips_code": "0239960", "name": "Kivalina", "regional_corporation_fips_code": "0252120", "borough_fips_code": "02188", "grid_id": 58, "ansi_code": "02419411", "dcra_code": "88062838-37F6-4578-9FDD-4DBF5CACD276", "latitude": 67.72738683, "longitude": -164.5399655, "pce_eligible": null, "pce_active": null }, "geometry": { "type": "Point", "coordinates": [ -164.539965502999962, 67.727386828000078 ] } },
{ "type": "Feature", "properties": { "fips_code": "0240400", "name": "Klawock", "regional_corporation_fips_code": "0267940", "borough_fips_code": "02198", "grid_id": 23, "ansi_code": "02419412", "dcra_code": "F3CDD092-3609-4B82-9B09-D35DB0E7375F", "latitude": 55.55450419, "longitude": -133.09603454000001, "pce_eligible": null, "pce_active": null }, "geometry": { "type": "Point", "coordinates": [ -133.096034542999973, 55.554504191000035 ] } },
{ "type": "Feature", "properties": { "fips_code": "0240510", "name": "Klukwan", "regional_corporation_fips_code": "0267940", "borough_fips_code": "02105", "grid_id": 32, "ansi_code": "02418660", "dcra_code": "F28EF005-C4A1-4868-9B6A-826AD9633025", "latitude": 59.40043417, "longitude": -135.89587576, "pce_eligible": null, "pce_active": null }, "geometry": { "type": "Point", "coordinates": [ -135.895875761999946, 59.400434166000082 ] } },
{ "type": "Feature", "properties": { "fips_code": "0240670", "name": "Knik River", "regional_corporation_fips_code": "0217140", "borough_fips_code": "02170", "grid_id": 215, "ansi_code": "02418662", "dcra_code": "77794617-74AE-484C-B2E5-D017D4597CC2", "latitude": 61.49712115, "longitude": -148.94092664, "pce_eligible": null, "pce_active": null }, "geometry": { "type": "Point", "coordinates": [ -148.940926641999965, 61.497121150000055 ] } },
{ "type": "Feature", "properties": { "fips_code": "0240645", "name": "Knik-Fairview", "regional_corporation_fips_code": "0217140", "borough_fips_code": "02170", "grid_id": 215, "ansi_code": "02418663", "dcra_code": "7BF57869-7BB6-44A4-ADAF-FCBC10DFC7D2", "latitude": 61.51685582, "longitude": -149.62083067, "pce_eligible": null, "pce_active": null }, "geometry": { "type": "Point", "coordinates": [ -149.620830670999965, 61.516855815000042 ] } },
{ "type": "Feature", "properties": { "fips_code": "0240840", "name": "Kobuk", "regional_corporation_fips_code": "0252120", "borough_fips_code": "02188", "grid_id": 149, "ansi_code": "02419413", "dcra_code": "319107E2-FB9A-474B-8237-6A8CFF382E09", "latitude": 66.90770092, "longitude": -156.88237275, "pce_eligible": null, "pce_active": null }, "geometry": { "type": "Point", "coordinates": [ -156.88237275399996, 66.90770092300005 ] } },
{ "type": "Feature", "properties": { "fips_code": "0240950", "name": "Kodiak", "regional_corporation_fips_code": "0241640", "borough_fips_code": "02150", "grid_id": 223, "ansi_code": "02419414", "dcra_code": "98F61372-E8BA-41BD-8291-B2318BB0C9F0", "latitude": 57.79300136, "longitude": -152.39748118, "pce_eligible": null, "pce_active": null }, "geometry": { "type": "Point", "coordinates": [ -152.397481180999961, 57.793001361000051 ] } },
{ "type": "Feature", "properties": { "fips_code": "0241210", "name": "Kodiak Station", "regional_corporation_fips_code": "0241640", "borough_fips_code": "02150", "grid_id": 223, "ansi_code": "02418665", "dcra_code": "FCB82B0A-C4D2-4840-9D71-C3A5B6E31DA6", "latitude": 57.7381, "longitude": -152.5037, "pce_eligible": null, "pce_active": null }, "geometry": { "type": "Point", "coordinates": [ -152.5037, 57.7381 ] } },
{ "type": "Feature", "properties": { "fips_code": "0241280", "name": "Kokhanok", "regional_corporation_fips_code": "0209040", "borough_fips_code": "02164", "grid_id": 134, "ansi_code": "02418667", "dcra_code": "89EB5E58-676F-4DA4-9449-8BD556A1E98C", "latitude": 59.44000574, "longitude": -154.74918539000001, "pce_eligible": null, "pce_active": null }, "geometry": { "type": "Point", "coordinates": [ -154.749185393999966, 59.440005744000075 ] } },
{ "type": "Feature", "properties": { "fips_code": "0241500", "name": "Koliganek", "regional_corporation_fips_code": "0209040", "borough_fips_code": "02070", "grid_id": 157, "ansi_code": "02418668", "dcra_code": "BF86DFB1-D998-4FF0-A370-8AF716F5C4BE", "latitude": 59.72640737, "longitude": -157.28569589, "pce_eligible": null, "pce_active": null }, "geometry": { "type": "Point", "coordinates": [ -157.285695888999982, 59.726407369000071 ] } },
{ "type": "Feature", "properties": { "fips_code": "0241610", "name": "Kongiganak", "regional_corporation_fips_code": "0209800", "borough_fips_code": "02050", "grid_id": 176, "ansi_code": "02418670", "dcra_code": "833744EB-91EC-4A96-AD90-A5E91FAB1250", "latitude": 59.95943874, "longitude": -162.88706395, "pce_eligible": null, "pce_active": null }, "geometry": { "type": "Point", "coordinates": [ -162.887063946999973, 59.959438740000053 ] } },
{ "type": "Feature", "properties": { "fips_code": "0241720", "name": "Kotlik", "regional_corporation_fips_code": "0209800", "borough_fips_code": "02270", "grid_id": 59, "ansi_code": "02419415", "dcra_code": "9A6475BE-BEC0-49DA-8979-2C6E5FFF39CB", "latitude": 63.03311399, "longitude": -163.55653659000001, "pce_eligible": null, "pce_active": null }, "geometry": { "type": "Point", "coordinates": [ -163.556536589999979, 63.03311399100005 ] } },
{ "type": "Feature", "properties": { "fips_code": "0241830", "name": "Kotzebue", "regional_corporation_fips_code": "0252120", "borough_fips_code": "02188", "grid_id": 135, "ansi_code": "02419416", "dcra_code": "209A76C3-F9A4-4015-987C-78C5A44BE669", "latitude": 66.89667542, "longitude": -162.59298933, "pce_eligible": null, "pce_active": null }, "geometry": { "type": "Point", "coordinates": [ -162.592989328999977, 66.896675418000029 ] } },
{ "type": "Feature", "properties": { "fips_code": "0241940", "name": "Koyuk", "regional_corporation_fips_code": "0206370", "borough_fips_code": "02180", "grid_id": 60, "ansi_code": "02419417", "dcra_code": "DF841D28-31A1-4978-A650-B56C189E60FD", "latitude": 64.93066131, "longitude": -161.16487363, "pce_eligible": null, "pce_active": null }, "geometry": { "type": "Point", "coordinates": [ -161.16487362899997, 64.930661306000047 ] } },
{ "type": "Feature", "properties": { "fips_code": "0242050", "name": "Koyukuk", "regional_corporation_fips_code": "0220010", "borough_fips_code": "02290", "grid_id": 136, "ansi_code": "02419418", "dcra_code": "25A4F514-7ADF-4F62-873B-6D2F16141D13", "latitude": 64.88178878, "longitude": -157.70270185000001, "pce_eligible": null, "pce_active": null }, "geometry": { "type": "Point", "coordinates": [ -157.702701846999958, 64.881788779000033 ] } },
{ "type": "Feature", "properties": { "fips_code": "0242160", "name": "Kupreanof", "regional_corporation_fips_code": "0267940", "borough_fips_code": "02195", "grid_id": 217, "ansi_code": "02419419", "dcra_code": "3F03290E-B081-4B92-9E0F-33F6E0CD513B", "latitude": 56.81669536, "longitude": -132.97770415, "pce_eligible": null, "pce_active": null }, "geometry": { "type": "Point", "coordinates": [ -132.977704147999987, 56.816695358000061 ] } },
{ "type": "Feature", "properties": { "fips_code": "0242380", "name": "Kwethluk", "regional_corporation_fips_code": "0209800", "borough_fips_code": "02050", "grid_id": 137, "ansi_code": "02419420", "dcra_code": "FF083E35-08C8-468F-B328-F69992F18FB7", "latitude": 60.81122837, "longitude": -161.43754673000001, "pce_eligible": null, "pce_active": null }, "geometry": { "type": "Point", "coordinates": [ -161.437546734999984, 60.811228368000059 ] } },
{ "type": "Feature", "properties": { "fips_code": "0242490", "name": "Kwigillingok", "regional_corporation_fips_code": "0209800", "borough_fips_code": "02050", "grid_id": 138, "ansi_code": "02418677", "dcra_code": "67C5F12A-3F7F-4EAB-88E0-136D880F8DD0", "latitude": 59.87709667, "longitude": -163.15761839000001, "pce_eligible": null, "pce_active": null }, "geometry": { "type": "Point", "coordinates": [ -163.157618385999967, 59.877096668000036 ] } },
{ "type": "Feature", "properties": { "fips_code": "0242805", "name": "Lake Louise", "regional_corporation_fips_code": "0200590", "borough_fips_code": "02170", "grid_id": null, "ansi_code": "02418679", "dcra_code": "5B35CAEA-BA8D-4EF3-A4F3-802613A8240F", "latitude": 62.29986189, "longitude": -146.58825648000001, "pce_eligible": null, "pce_active": null }, "geometry": { "type": "Point", "coordinates": [ -146.588256478999966, 62.299861891000035 ] } },
{ "type": "Feature", "properties": { "fips_code": "0242820", "name": "Lake Minchumina", "regional_corporation_fips_code": "0220010", "borough_fips_code": "02290", "grid_id": null, "ansi_code": "02418680", "dcra_code": "3087F3EA-5475-4180-9982-992F736DFD19", "latitude": 63.88261006, "longitude": -152.31468697, "pce_eligible": null, "pce_active": null }, "geometry": { "type": "Point", "coordinates": [ -152.314686966999972, 63.882610056000033 ] } },
{ "type": "Feature", "properties": { "fips_code": "0243040", "name": "Larsen Bay", "regional_corporation_fips_code": "0241640", "borough_fips_code": "02150", "grid_id": 139, "ansi_code": "02419421", "dcra_code": "9F0EF727-1805-4199-AD1B-40C49AF1B61C", "latitude": 57.53706833, "longitude": -153.9814353, "pce_eligible": null, "pce_active": null }, "geometry": { "type": "Point", "coordinates": [ -153.981435302999984, 57.537068333000036 ] } },
{ "type": "Feature", "properties": { "fips_code": "0243260", "name": "Lazy Mountain", "regional_corporation_fips_code": "0217140", "borough_fips_code": "02170", "grid_id": 215, "ansi_code": "02418683", "dcra_code": "2F86B48B-D348-47DD-ABED-46CE01770ECC", "latitude": 61.62833023, "longitude": -149.04599844000001, "pce_eligible": null, "pce_active": null }, "geometry": { "type": "Point", "coordinates": [ -149.04599843799997, 61.628330229000028 ] } },
{ "type": "Feature", "properties": { "fips_code": "0243810", "name": "Levelock", "regional_corporation_fips_code": "0209040", "borough_fips_code": "02164", "grid_id": 140, "ansi_code": "02418685", "dcra_code": "C99D0CCC-0034-4A9E-8A97-37B371CDC3CF", "latitude": 59.11246319, "longitude": -156.85750185000001, "pce_eligible": null, "pce_active": null }, "geometry": { "type": "Point", "coordinates": [ -156.857501852999974, 59.11246318600007 ] } },
{ "type": "Feature", "properties": { "fips_code": "0244030", "name": "Lime Village", "regional_corporation_fips_code": "0209800", "borough_fips_code": "02050", "grid_id": 141, "ansi_code": "02418687", "dcra_code": "A4767A4D-9554-40BC-9D6F-F4FDD3C05647", "latitude": 61.35538888, "longitude": -155.43702258, "pce_eligible": null, "pce_active": null }, "geometry": { "type": "Point", "coordinates": [ -155.437022580999979, 61.355388881000067 ] } },
{ "type": "Feature", "properties": { "fips_code": "0244580", "name": "Livengood", "regional_corporation_fips_code": "0220010", "borough_fips_code": "02290", "grid_id": null, "ansi_code": "02418688", "dcra_code": "0A72A6CB-FAC9-4A65-9C48-A47E796CCA85", "latitude": 65.52281398, "longitude": -148.54850048, "pce_eligible": null, "pce_active": null }, "geometry": { "type": "Point", "coordinates": [ -148.548500480999962, 65.522813977000055 ] } },
{ "type": "Feature", "properties": { "fips_code": "0245020", "name": "Loring", "regional_corporation_fips_code": "0267940", "borough_fips_code": "02130", "grid_id": null, "ansi_code": "02585565", "dcra_code": "CA4E1D93-D6D4-4CA8-8FC7-F518777BE58C", "latitude": 55.60281742, "longitude": -131.6373989, "pce_eligible": null, "pce_active": null }, "geometry": { "type": "Point", "coordinates": [ -131.637398898999948, 55.602817423000033 ] } },
{ "type": "Feature", "properties": { "fips_code": "0245295", "name": "Lowell Point", "regional_corporation_fips_code": "0214410", "borough_fips_code": "02122", "grid_id": 215, "ansi_code": "02418689", "dcra_code": "338A7ACA-098D-4B9F-A871-233477997E11", "latitude": 60.0725, "longitude": -149.4411111, "pce_eligible": null, "pce_active": null }, "geometry": { "type": "Point", "coordinates": [ -149.441111099999972, 60.0725 ] } },
{ "type": "Feature", "properties": { "fips_code": "0245460", "name": "Lower Kalskag", "regional_corporation_fips_code": "0209800", "borough_fips_code": "02050", "grid_id": 52, "ansi_code": "02419422", "dcra_code": "511EBD11-DE52-4BAB-8C3E-D2E9F870E1EC", "latitude": 61.51236297, "longitude": -160.36440167000001, "pce_eligible": null, "pce_active": null }, "geometry": { "type": "Point", "coordinates": [ -160.36440166899996, 61.512362973000052 ] } },
{ "type": "Feature", "properties": { "fips_code": "0245700", "name": "Lutak", "regional_corporation_fips_code": "0267940", "borough_fips_code": "02100", "grid_id": 32, "ansi_code": "02418692", "dcra_code": "EA2C7BBD-7821-4F3C-9291-9F797D30FF7B", "latitude": 59.31301367, "longitude": -135.5462038, "pce_eligible": null, "pce_active": null }, "geometry": { "type": "Point", "coordinates": [ -135.546203803999958, 59.313013668000053 ] } },
{ "type": "Feature", "properties": { "fips_code": "0246780", "name": "Manley Hot Springs", "regional_corporation_fips_code": "0220010", "borough_fips_code": "02290", "grid_id": 188, "ansi_code": "02418695", "dcra_code": "DFE91156-E4B0-4DC7-B3F9-6A61A37FF0D4", "latitude": 64.99588683, "longitude": -150.63716518000001, "pce_eligible": null, "pce_active": null }, "geometry": { "type": "Point", "coordinates": [ -150.637165176999957, 64.995886827000049 ] } },
{ "type": "Feature", "properties": { "fips_code": "0246890", "name": "Manokotak", "regional_corporation_fips_code": "0209040", "borough_fips_code": "02070", "grid_id": 142, "ansi_code": "02419423", "dcra_code": "3DF92237-DB7B-4CEB-88DE-A1481F4072AD", "latitude": 58.97954187, "longitude": -159.05492998, "pce_eligible": null, "pce_active": null }, "geometry": { "type": "Point", "coordinates": [ -159.054929976999972, 58.979541865000044 ] } },
{ "type": "Feature", "properties": { "fips_code": "0247000", "name": "Marshall", "regional_corporation_fips_code": "0209800", "borough_fips_code": "02270", "grid_id": 61, "ansi_code": "02419424", "dcra_code": "2F8EE675-06A4-4B7A-9275-369FEB17B896", "latitude": 61.88144143, "longitude": -162.08816948, "pce_eligible": null, "pce_active": null }, "geometry": { "type": "Point", "coordinates": [ -162.088169481999984, 61.881441428000073 ] } },
{ "type": "Feature", "properties": { "fips_code": "0245790", "name": "McCarthy", "regional_corporation_fips_code": "0200590", "borough_fips_code": "02066", "grid_id": null, "ansi_code": "02418699", "dcra_code": "878A4A85-1B32-43DD-9856-7A7FE62F6DE6", "latitude": 61.43287967, "longitude": -142.92370024, "pce_eligible": null, "pce_active": null }, "geometry": { "type": "Point", "coordinates": [ -142.923700237, 61.432879673000059 ] } },
{ "type": "Feature", "properties": { "fips_code": "0246010", "name": "McGrath", "regional_corporation_fips_code": "0220010", "borough_fips_code": "02290", "grid_id": 143, "ansi_code": "02419425", "dcra_code": "44BA33DB-984D-44E1-BF2D-7E1A353E586D", "latitude": 62.95014085, "longitude": -155.58835315, "pce_eligible": null, "pce_active": null }, "geometry": { "type": "Point", "coordinates": [ -155.588353146999964, 62.950140847000057 ] } },
{ "type": "Feature", "properties": { "fips_code": "0247735", "name": "Meadow Lakes", "regional_corporation_fips_code": "0217140", "borough_fips_code": "02170", "grid_id": 215, "ansi_code": "02418702", "dcra_code": "2DB58EF7-4C06-407F-9B11-35502BBDB0CC", "latitude": 61.62425754, "longitude": -149.60355194, "pce_eligible": null, "pce_active": null }, "geometry": { "type": "Point", "coordinates": [ -149.603551935999974, 61.624257543000056 ] } },
{ "type": "Feature", "properties": { "fips_code": "0247990", "name": "Mekoryuk", "regional_corporation_fips_code": "0209800", "borough_fips_code": "02050", "grid_id": 62, "ansi_code": "02419426", "dcra_code": "06A5691A-049B-426D-85BC-73439735D4DB", "latitude": 60.38649408, "longitude": -166.1928612, "pce_eligible": null, "pce_active": null }, "geometry": { "type": "Point", "coordinates": [ -166.192861204999986, 60.386494078000055 ] } },
{ "type": "Feature", "properties": { "fips_code": "0248200", "name": "Mendeltna", "regional_corporation_fips_code": "0200590", "borough_fips_code": "02066", "grid_id": 216, "ansi_code": "02418706", "dcra_code": "E3BABD89-94E5-4656-A111-C38FD33CFD08", "latitude": 62.0494, "longitude": -146.5383, "pce_eligible": null, "pce_active": null }, "geometry": { "type": "Point", "coordinates": [ -146.5383, 62.0494 ] } },
{ "type": "Feature", "properties": { "fips_code": "0248540", "name": "Mentasta Lake", "regional_corporation_fips_code": "0200590", "borough_fips_code": "02066", "grid_id": 26, "ansi_code": "02418708", "dcra_code": "138A74FA-943C-4AC3-B538-9484C09C2AD1", "latitude": 62.92939878, "longitude": -143.79758178, "pce_eligible": null, "pce_active": null }, "geometry": { "type": "Point", "coordinates": [ -143.797581781999952, 62.929398778000063 ] } },
{ "type": "Feature", "properties": { "fips_code": "0248590", "name": "Mertarvik", "regional_corporation_fips_code": "0209800", "borough_fips_code": "02050", "grid_id": 196, "ansi_code": "02582714", "dcra_code": "52F580FF-4AE6-48D4-920A-DD72272CB458", "latitude": 60.81887984, "longitude": -164.50713521, "pce_eligible": null, "pce_active": null }, "geometry": { "type": "Point", "coordinates": [ -164.507135208999983, 60.818879843000047 ] } },
{ "type": "Feature", "properties": { "fips_code": "0248870", "name": "Metlakatla", "regional_corporation_fips_code": null, "borough_fips_code": "02198", "grid_id": 225, "ansi_code": "02418709", "dcra_code": "179D4B3A-A5AC-43B1-9AE0-6F7B6B7A3CB3", "latitude": 55.12607391, "longitude": -131.57330705000001, "pce_eligible": null, "pce_active": null }, "geometry": { "type": "Point", "coordinates": [ -131.573307046999957, 55.126073906000045 ] } },
{ "type": "Feature", "properties": { "fips_code": "0249200", "name": "Mill Bay", "regional_corporation_fips_code": "0241640", "borough_fips_code": "02150", "grid_id": 223, "ansi_code": "02805896", "dcra_code": "F4E131A4-D045-4C7B-BE4E-02795735ED5A", "latitude": 57.8155011, "longitude": -152.3675422, "pce_eligible": null, "pce_active": null }, "geometry": { "type": "Point", "coordinates": [ -152.367542199999974, 57.815501100000063 ] } },
{ "type": "Feature", "properties": { "fips_code": "0249530", "name": "Minto", "regional_corporation_fips_code": "0220010", "borough_fips_code": "02290", "grid_id": 63, "ansi_code": "02418714", "dcra_code": "D3D709DB-0DF6-43DD-ACE0-FAF53A544273", "latitude": 65.15214834, "longitude": -149.34826008, "pce_eligible": null, "pce_active": null }, "geometry": { "type": "Point", "coordinates": [ -149.348260082999957, 65.152148338000075 ] } },
{ "type": "Feature", "properties": { "fips_code": "0250080", "name": "Moose Creek", "regional_corporation_fips_code": "0220010", "borough_fips_code": "02090", "grid_id": 215, "ansi_code": "02418716", "dcra_code": "7656A688-D4F7-4599-B494-E946C7AC2CF6", "latitude": 64.70862307, "longitude": -147.15053014, "pce_eligible": null, "pce_active": null }, "geometry": { "type": "Point", "coordinates": [ -147.150530138999983, 64.708623069000055 ] } },
{ "type": "Feature", "properties": { "fips_code": "0250190", "name": "Moose Pass", "regional_corporation_fips_code": "0217140", "borough_fips_code": "02122", "grid_id": 215, "ansi_code": "02418717", "dcra_code": "9A5F6C32-F2B9-425E-86F6-1C856BB6FFA8", "latitude": 60.48643528, "longitude": -149.36827705, "pce_eligible": null, "pce_active": null }, "geometry": { "type": "Point", "coordinates": [ -149.368277051999968, 60.48643528000008 ] } },
{ "type": "Feature", "properties": { "fips_code": "0250800", "name": "Mosquito Lake", "regional_corporation_fips_code": "0267940", "borough_fips_code": "02100", "grid_id": 32, "ansi_code": "02418718", "dcra_code": "4D3AB901-46B6-47E7-B8D1-D6869F97799F", "latitude": 59.44650625, "longitude": -136.0314547, "pce_eligible": null, "pce_active": null }, "geometry": { "type": "Point", "coordinates": [ -136.031454702999952, 59.446506254000042 ] } },
{ "type": "Feature", "properties": { "fips_code": "0251180", "name": "Mountain Village", "regional_corporation_fips_code": "0209800", "borough_fips_code": "02270", "grid_id": 75, "ansi_code": "02419427", "dcra_code": "EDB9EEBA-7A73-42DB-9658-44DA2280EBE3", "latitude": 62.08954141, "longitude": -163.72627562, "pce_eligible": null, "pce_active": null }, "geometry": { "type": "Point", "coordinates": [ -163.726275620999985, 62.089541413000063 ] } },
{ "type": "Feature", "properties": { "fips_code": "0251455", "name": "Mud Bay", "regional_corporation_fips_code": "0267940", "borough_fips_code": "02100", "grid_id": 32, "ansi_code": "02418720", "dcra_code": "81BDA0B4-0CF3-41FD-B749-2E3923D9E10F", "latitude": 59.15998909, "longitude": -135.37500524000001, "pce_eligible": null, "pce_active": null }, "geometry": { "type": "Point", "coordinates": [ -135.37500523999995, 59.159989093000036 ] } },
{ "type": "Feature", "properties": { "fips_code": "0251960", "name": "Nabesna", "regional_corporation_fips_code": "0200590", "borough_fips_code": "02066", "grid_id": null, "ansi_code": "02582715", "dcra_code": "8DFCE93A-8EBA-43DF-B553-ABE121D98529", "latitude": 62.37195602, "longitude": -143.01178595, "pce_eligible": null, "pce_active": null }, "geometry": { "type": "Point", "coordinates": [ -143.011785946999964, 62.371956020000027 ] } },
{ "type": "Feature", "properties": { "fips_code": "0252060", "name": "Naknek", "regional_corporation_fips_code": "0209040", "borough_fips_code": "02060", "grid_id": 150, "ansi_code": "02418722", "dcra_code": "BECA4B02-6040-43FA-93A9-D551AD5AB86B", "latitude": 58.72821587, "longitude": -157.01991376000001, "pce_eligible": null, "pce_active": null }, "geometry": { "type": "Point", "coordinates": [ -157.019913761999959, 58.728215867000074 ] } },
{ "type": "Feature", "properties": { "fips_code": "0252210", "name": "Nanwalek", "regional_corporation_fips_code": "0214410", "borough_fips_code": "02122", "grid_id": null, "ansi_code": "02418726", "dcra_code": "69A94C10-7F0D-42A7-93D9-CE014277D75A", "latitude": 59.35443449, "longitude": -151.91992102, "pce_eligible": null, "pce_active": null }, "geometry": { "type": "Point", "coordinates": [ -151.919921015999961, 59.354434492000053 ] } },
{ "type": "Feature", "properties": { "fips_code": "0252390", "name": "Napakiak", "regional_corporation_fips_code": "0209800", "borough_fips_code": "02050", "grid_id": 34, "ansi_code": "02419428", "dcra_code": "16F1264E-DF67-4828-9E72-1AB821AB3F99", "latitude": 60.69433134, "longitude": -161.97262602000001, "pce_eligible": null, "pce_active": null }, "geometry": { "type": "Point", "coordinates": [ -161.972626020999968, 60.694331337000051 ] } },
{ "type": "Feature", "properties": { "fips_code": "0252720", "name": "Napaskiak", "regional_corporation_fips_code": "0209800", "borough_fips_code": "02050", "grid_id": 153, "ansi_code": "02419429", "dcra_code": "6D864316-582B-4749-A178-D9BAD04003D1", "latitude": 60.70823356, "longitude": -161.75319706, "pce_eligible": null, "pce_active": null }, "geometry": { "type": "Point", "coordinates": [ -161.753197055999976, 60.708233561000043 ] } },
{ "type": "Feature", "properties": { "fips_code": "0252845", "name": "Naukati Bay", "regional_corporation_fips_code": "0267940", "borough_fips_code": "02198", "grid_id": 23, "ansi_code": "02418730", "dcra_code": "D95D0788-C59A-4F16-AB72-3A049B1E1AFC", "latitude": 55.86896699, "longitude": -133.20267814, "pce_eligible": null, "pce_active": null }, "geometry": { "type": "Point", "coordinates": [ -133.202678143999947, 55.868966990000047 ] } },
{ "type": "Feature", "properties": { "fips_code": "0252915", "name": "Nelchina", "regional_corporation_fips_code": "0200590", "borough_fips_code": "02066", "grid_id": 216, "ansi_code": "02418731", "dcra_code": "53719238-336A-4B67-82E2-32339DE9CD8E", "latitude": 61.9898422, "longitude": -146.77891647000001, "pce_eligible": null, "pce_active": null }, "geometry": { "type": "Point", "coordinates": [ -146.77891647499996, 61.98984220300008 ] } },
{ "type": "Feature", "properties": { "fips_code": "0252940", "name": "Nelson Lagoon", "regional_corporation_fips_code": "0201570", "borough_fips_code": "02013", "grid_id": 156, "ansi_code": "02418733", "dcra_code": "AFAD8F2B-A3E7-42E7-A5D7-3AC28A5988D4", "latitude": 56.00120604, "longitude": -161.20184982000001, "pce_eligible": null, "pce_active": null }, "geometry": { "type": "Point", "coordinates": [ -161.201849824999982, 56.001206036000042 ] } },
{ "type": "Feature", "properties": { "fips_code": "0253050", "name": "Nenana", "regional_corporation_fips_code": "0220010", "borough_fips_code": "02290", "grid_id": 215, "ansi_code": "02419430", "dcra_code": "3AC29D09-E0DD-4840-9E31-13F575B4BFF4", "latitude": 64.56270921, "longitude": -149.09074136000001, "pce_eligible": null, "pce_active": null }, "geometry": { "type": "Point", "coordinates": [ -149.090741363999967, 64.562709212000073 ] } },
{ "type": "Feature", "properties": { "fips_code": "0253710", "name": "New Stuyahok", "regional_corporation_fips_code": "0209040", "borough_fips_code": "02070", "grid_id": 65, "ansi_code": "02419431", "dcra_code": "0C233779-E987-4620-A2DB-33C5FF299964", "latitude": 59.45155086, "longitude": -157.31128856000001, "pce_eligible": null, "pce_active": null }, "geometry": { "type": "Point", "coordinates": [ -157.311288563999966, 59.45155085500005 ] } },
{ "type": "Feature", "properties": { "fips_code": "0253270", "name": "Newhalen", "regional_corporation_fips_code": "0209040", "borough_fips_code": "02164", "grid_id": 123, "ansi_code": "02419432", "dcra_code": "510DC86B-4E8B-482F-9372-E63914E50E7D", "latitude": 59.72097095, "longitude": -154.89480018, "pce_eligible": null, "pce_active": null }, "geometry": { "type": "Point", "coordinates": [ -154.894800178999958, 59.720970952000073 ] } },
{ "type": "Feature", "properties": { "fips_code": "0253820", "name": "Newtok", "regional_corporation_fips_code": "0209800", "borough_fips_code": "02050", "grid_id": 196, "ansi_code": "02418740", "dcra_code": "258C640B-3DF8-425C-8445-188CD6A6A660", "latitude": 60.93686382, "longitude": -164.62941623, "pce_eligible": null, "pce_active": null }, "geometry": { "type": "Point", "coordinates": [ -164.629416231999983, 60.936863824000056 ] } },
{ "type": "Feature", "properties": { "fips_code": "0253930", "name": "Nightmute", "regional_corporation_fips_code": "0209800", "borough_fips_code": "02050", "grid_id": 88, "ansi_code": "02419433", "dcra_code": "A83F4C9F-FA93-4FC6-974A-39BA917BA023", "latitude": 60.4799803, "longitude": -164.72996641, "pce_eligible": null, "pce_active": null }, "geometry": { "type": "Point", "coordinates": [ -164.729966412999971, 60.479980301000069 ] } },
{ "type": "Feature", "properties": { "fips_code": "0254050", "name": "Nikiski", "regional_corporation_fips_code": "0217140", "borough_fips_code": "02122", "grid_id": 215, "ansi_code": "02418742", "dcra_code": "18EF53D7-2321-4285-A7D2-2F20CC22AEE6", "latitude": 60.73459723, "longitude": -151.29692559, "pce_eligible": null, "pce_active": null }, "geometry": { "type": "Point", "coordinates": [ -151.296925586999976, 60.734597225000073 ] } },
{ "type": "Feature", "properties": { "fips_code": "0254085", "name": "Nikolaevsk", "regional_corporation_fips_code": "0217140", "borough_fips_code": "02122", "grid_id": 215, "ansi_code": "02418743", "dcra_code": "8CB3E4E0-D9F5-4B0C-93D8-C436A193A465", "latitude": 59.81132569, "longitude": -151.61311471, "pce_eligible": null, "pce_active": null }, "geometry": { "type": "Point", "coordinates": [ -151.613114708999973, 59.811325688000068 ] } },
{ "type": "Feature", "properties": { "fips_code": "0254150", "name": "Nikolai", "regional_corporation_fips_code": "0220010", "borough_fips_code": "02290", "grid_id": 158, "ansi_code": "02419434", "dcra_code": "A9A591D6-DAB0-4694-9B95-1A56A7F5914D", "latitude": 63.01373203, "longitude": -154.37521598000001, "pce_eligible": null, "pce_active": null }, "geometry": { "type": "Point", "coordinates": [ -154.375215980999968, 63.013732034000043 ] } },
{ "type": "Feature", "properties": { "fips_code": "0254260", "name": "Nikolski", "regional_corporation_fips_code": "0201570", "borough_fips_code": "02016", "grid_id": 193, "ansi_code": "02418746", "dcra_code": "4B756DDD-55AC-49E9-AD29-8868DF25D4E3", "latitude": 52.94010895, "longitude": -168.86018348, "pce_eligible": null, "pce_active": null }, "geometry": { "type": "Point", "coordinates": [ -168.860183476999964, 52.940108953000049 ] } },
{ "type": "Feature", "properties": { "fips_code": "0254480", "name": "Ninilchik", "regional_corporation_fips_code": "0217140", "borough_fips_code": "02122", "grid_id": 215, "ansi_code": "02418748", "dcra_code": "95A8CBA5-6323-4734-AA72-89B097FBD56F", "latitude": 60.04305213, "longitude": -151.67510116, "pce_eligible": null, "pce_active": null }, "geometry": { "type": "Point", "coordinates": [ -151.675101157999961, 60.043052130000035 ] } },