{
"type": "FeatureCollection",
"name": "sql_statement",
"crs": { "type": "name", "properties": { "name": "urn:ogc:def:crs:OGC:1.3:CRS84" } },
"features": [
{ "type": "Feature", "properties": { "aea_plant_id": 1, "eia_plant_id": 54452, "name": "Agrium Kenai Nitrogen Operations", "pce_reporting_id": null, "aea_operator_id": 121, "eia_operator_id": 179, "grid_id": 215, "service_area_geom_id": "32_1", "combined_heat_power": false, "grid_primary_voltage_kv": 24.8, "grid_primary_voltage_2_kv": null, "phases": null, "notes": null }, "geometry": { "type": "Point", "coordinates": [ -151.3784, 60.6732 ] } },
{ "type": "Feature", "properties": { "aea_plant_id": 2, "eia_plant_id": null, "name": "Akhiok", "pce_reporting_id": 331010, "aea_operator_id": 1, "eia_operator_id": null, "grid_id": 1, "service_area_geom_id": "449_1", "combined_heat_power": false, "grid_primary_voltage_kv": 7.2, "grid_primary_voltage_2_kv": null, "phases": null, "notes": null }, "geometry": { "type": "Point", "coordinates": [ -154.17028, 56.94556 ] } },
{ "type": "Feature", "properties": { "aea_plant_id": 3, "eia_plant_id": null, "name": "Akiachak", "pce_reporting_id": 331020, "aea_operator_id": 3, "eia_operator_id": null, "grid_id": 2, "service_area_geom_id": "412_1", "combined_heat_power": true, "grid_primary_voltage_kv": 7.2, "grid_primary_voltage_2_kv": null, "phases": null, "notes": null }, "geometry": { "type": "Point", "coordinates": [ -161.43139, 60.90944 ] } },
{ "type": "Feature", "properties": { "aea_plant_id": 4, "eia_plant_id": null, "name": "Akiak", "pce_reporting_id": 331030, "aea_operator_id": 2, "eia_operator_id": null, "grid_id": 3, "service_area_geom_id": "635_1", "combined_heat_power": true, "grid_primary_voltage_kv": 7.2, "grid_primary_voltage_2_kv": null, "phases": null, "notes": null }, "geometry": { "type": "Point", "coordinates": [ -161.21389, 60.91222 ] } },
{ "type": "Feature", "properties": { "aea_plant_id": 5, "eia_plant_id": null, "name": "Akutan", "pce_reporting_id": 331040, "aea_operator_id": 4, "eia_operator_id": null, "grid_id": 4, "service_area_geom_id": "293_1", "combined_heat_power": false, "grid_primary_voltage_kv": 7.2, "grid_primary_voltage_2_kv": null, "phases": null, "notes": null }, "geometry": { "type": "Point", "coordinates": [ -165.77306, 54.13556 ] } },
{ "type": "Feature", "properties": { "aea_plant_id": 6, "eia_plant_id": 62, "name": "Annex Creek", "pce_reporting_id": null, "aea_operator_id": 133, "eia_operator_id": 213, "grid_id": 222, "service_area_geom_id": "1_1", "combined_heat_power": false, "grid_primary_voltage_kv": 23.0, "grid_primary_voltage_2_kv": null, "phases": null, "notes": null }, "geometry": { "type": "Point", "coordinates": [ -134.101, 58.3176 ] } },
{ "type": "Feature", "properties": { "aea_plant_id": 7, "eia_plant_id": 7250, "name": "Auke Bay", "pce_reporting_id": null, "aea_operator_id": 133, "eia_operator_id": 213, "grid_id": 222, "service_area_geom_id": "1_1", "combined_heat_power": false, "grid_primary_voltage_kv": 69.0, "grid_primary_voltage_2_kv": null, "phases": null, "notes": null }, "geometry": { "type": "Point", "coordinates": [ -134.6446, 58.3875 ] } },
{ "type": "Feature", "properties": { "aea_plant_id": 8, "eia_plant_id": 63, "name": "Gold Creek", "pce_reporting_id": null, "aea_operator_id": 133, "eia_operator_id": 213, "grid_id": 222, "service_area_geom_id": "1_1", "combined_heat_power": false, "grid_primary_voltage_kv": 12.0, "grid_primary_voltage_2_kv": null, "phases": null, "notes": null }, "geometry": { "type": "Point", "coordinates": [ -134.4174, 58.3107 ] } },
{ "type": "Feature", "properties": { "aea_plant_id": 9, "eia_plant_id": 59793, "name": "Industrial Plant", "pce_reporting_id": null, "aea_operator_id": 133, "eia_operator_id": 213, "grid_id": 222, "service_area_geom_id": "1_1", "combined_heat_power": false, "grid_primary_voltage_kv": 69.0, "grid_primary_voltage_2_kv": null, "phases": null, "notes": null }, "geometry": { "type": "Point", "coordinates": [ -134.60802, 58.367635 ] } },
{ "type": "Feature", "properties": { "aea_plant_id": 10, "eia_plant_id": 57085, "name": "Lake Dorothy Hydroelectric Project", "pce_reporting_id": null, "aea_operator_id": 133, "eia_operator_id": 213, "grid_id": 222, "service_area_geom_id": "1_1", "combined_heat_power": false, "grid_primary_voltage_kv": 138.0, "grid_primary_voltage_2_kv": null, "phases": null, "notes": null }, "geometry": { "type": "Point", "coordinates": [ -134.0533, 58.2325 ] } },
{ "type": "Feature", "properties": { "aea_plant_id": 11, "eia_plant_id": 64, "name": "Lemon Creek", "pce_reporting_id": null, "aea_operator_id": 133, "eia_operator_id": 213, "grid_id": 222, "service_area_geom_id": "1_1", "combined_heat_power": false, "grid_primary_voltage_kv": 69.0, "grid_primary_voltage_2_kv": null, "phases": null, "notes": null }, "geometry": { "type": "Point", "coordinates": [ -134.4953, 58.3536 ] } },
{ "type": "Feature", "properties": { "aea_plant_id": 12, "eia_plant_id": 65, "name": "Salmon Creek 1", "pce_reporting_id": null, "aea_operator_id": 133, "eia_operator_id": 213, "grid_id": 222, "service_area_geom_id": "1_1", "combined_heat_power": false, "grid_primary_voltage_kv": 69.0, "grid_primary_voltage_2_kv": null, "phases": null, "notes": null }, "geometry": { "type": "Point", "coordinates": [ -134.4631, 58.3269 ] } },
{ "type": "Feature", "properties": { "aea_plant_id": 13, "eia_plant_id": 78, "name": "Snettisham", "pce_reporting_id": null, "aea_operator_id": 133, "eia_operator_id": 213, "grid_id": 222, "service_area_geom_id": "1_1", "combined_heat_power": false, "grid_primary_voltage_kv": 138.0, "grid_primary_voltage_2_kv": null, "phases": null, "notes": null }, "geometry": { "type": "Point", "coordinates": [ -133.737, 58.1415 ] } },
{ "type": "Feature", "properties": { "aea_plant_id": 14, "eia_plant_id": 58511, "name": "Delta Wind Farm", "pce_reporting_id": null, "aea_operator_id": 113, "eia_operator_id": 58488, "grid_id": 215, "service_area_geom_id": "13_1", "combined_heat_power": false, "grid_primary_voltage_kv": 25.0, "grid_primary_voltage_2_kv": null, "phases": null, "notes": null }, "geometry": { "type": "Point", "coordinates": [ -145.596667, 64.013889 ] } },
{ "type": "Feature", "properties": { "aea_plant_id": 15, "eia_plant_id": 7752, "name": "Black Bear Lake", "pce_reporting_id": null, "aea_operator_id": 5, "eia_operator_id": 219, "grid_id": 23, "service_area_geom_id": "2_2", "combined_heat_power": false, "grid_primary_voltage_kv": 34.5, "grid_primary_voltage_2_kv": null, "phases": null, "notes": "Included in PCE reporting as \"Purchased Power\"" }, "geometry": { "type": "Point", "coordinates": [ -133.14772, 55.476472 ] } },
{ "type": "Feature", "properties": { "aea_plant_id": 16, "eia_plant_id": 7751, "name": "Goat Lake Hydro", "pce_reporting_id": null, "aea_operator_id": 5, "eia_operator_id": 219, "grid_id": 32, "service_area_geom_id": "2_8", "combined_heat_power": false, "grid_primary_voltage_kv": 34.5, "grid_primary_voltage_2_kv": null, "phases": null, "notes": "Included in PCE reporting as \"Purchased Power\"" }, "geometry": { "type": "Point", "coordinates": [ -135.2123, 59.5357 ] } },
{ "type": "Feature", "properties": { "aea_plant_id": 17, "eia_plant_id": 56542, "name": "Kasidaya Creek Hydro", "pce_reporting_id": null, "aea_operator_id": 5, "eia_operator_id": 219, "grid_id": 32, "service_area_geom_id": "2_8", "combined_heat_power": false, "grid_primary_voltage_kv": 34.5, "grid_primary_voltage_2_kv": null, "phases": null, "notes": "Included in PCE reporting as \"Purchased Power\"" }, "geometry": { "type": "Point", "coordinates": [ -135.3408, 59.4072 ] } },
{ "type": "Feature", "properties": { "aea_plant_id": 18, "eia_plant_id": 56265, "name": "South Fork", "pce_reporting_id": null, "aea_operator_id": 5, "eia_operator_id": 219, "grid_id": 23, "service_area_geom_id": "2_2", "combined_heat_power": false, "grid_primary_voltage_kv": 34.5, "grid_primary_voltage_2_kv": null, "phases": null, "notes": "Included in PCE reporting as \"Purchased Power\"" }, "geometry": { "type": "Point", "coordinates": [ -132.891111, 55.563333 ] } },
{ "type": "Feature", "properties": { "aea_plant_id": 19, "eia_plant_id": 56147, "name": "Viking", "pce_reporting_id": null, "aea_operator_id": 5, "eia_operator_id": 219, "grid_id": 23, "service_area_geom_id": "2_2", "combined_heat_power": false, "grid_primary_voltage_kv": 12.47, "grid_primary_voltage_2_kv": null, "phases": null, "notes": null }, "geometry": { "type": "Point", "coordinates": [ -133.102344, 55.540708 ] } },
{ "type": "Feature", "properties": { "aea_plant_id": 20, "eia_plant_id": 421, "name": "Craig", "pce_reporting_id": 331090, "aea_operator_id": 5, "eia_operator_id": 219, "grid_id": 23, "service_area_geom_id": "2_2", "combined_heat_power": false, "grid_primary_voltage_kv": 12.47, "grid_primary_voltage_2_kv": null, "phases": null, "notes": null }, "geometry": { "type": "Point", "coordinates": [ -133.14869, 55.47691 ] } },
{ "type": "Feature", "properties": { "aea_plant_id": 21, "eia_plant_id": 56146, "name": "False Island", "pce_reporting_id": null, "aea_operator_id": 5, "eia_operator_id": 219, "grid_id": 23, "service_area_geom_id": "2_2", "combined_heat_power": false, "grid_primary_voltage_kv": 12.47, "grid_primary_voltage_2_kv": null, "phases": null, "notes": null }, "geometry": { "type": "Point", "coordinates": [ -133.1345, 55.48918 ] } },
{ "type": "Feature", "properties": { "aea_plant_id": 22, "eia_plant_id": 69, "name": "Haines", "pce_reporting_id": 331120, "aea_operator_id": 5, "eia_operator_id": 219, "grid_id": 32, "service_area_geom_id": "2_7", "combined_heat_power": false, "grid_primary_voltage_kv": 12.47, "grid_primary_voltage_2_kv": null, "phases": null, "notes": "PCE reporting includes diesel and hydro generation" }, "geometry": { "type": "Point", "coordinates": [ -135.446228, 59.235931 ] } },
{ "type": "Feature", "properties": { "aea_plant_id": 23, "eia_plant_id": 423, "name": "Hydaburg", "pce_reporting_id": 331150, "aea_operator_id": 5, "eia_operator_id": 219, "grid_id": 23, "service_area_geom_id": "2_1", "combined_heat_power": false, "grid_primary_voltage_kv": 2.4, "grid_primary_voltage_2_kv": null, "phases": null, "notes": null }, "geometry": { "type": "Point", "coordinates": [ -132.821435, 55.204937 ] } },
{ "type": "Feature", "properties": { "aea_plant_id": 24, "eia_plant_id": 61684, "name": "Klawock Power Generation Station", "pce_reporting_id": null, "aea_operator_id": 5, "eia_operator_id": 219, "grid_id": 23, "service_area_geom_id": "2_2", "combined_heat_power": false, "grid_primary_voltage_kv": 12.47, "grid_primary_voltage_2_kv": null, "phases": null, "notes": null }, "geometry": { "type": "Point", "coordinates": [ -133.08535, 55.553197 ] } },
{ "type": "Feature", "properties": { "aea_plant_id": 25, "eia_plant_id": 7169, "name": "Northway", "pce_reporting_id": 331180, "aea_operator_id": 5, "eia_operator_id": 219, "grid_id": 12, "service_area_geom_id": "2_12", "combined_heat_power": false, "grid_primary_voltage_kv": 14.4, "grid_primary_voltage_2_kv": null, "phases": null, "notes": null }, "geometry": { "type": "Point", "coordinates": [ -141.9372, 62.9617 ] } },
{ "type": "Feature", "properties": { "aea_plant_id": 26, "eia_plant_id": 66, "name": "Skagway", "pce_reporting_id": 331190, "aea_operator_id": 5, "eia_operator_id": 219, "grid_id": 32, "service_area_geom_id": "2_8", "combined_heat_power": false, "grid_primary_voltage_kv": 2.4, "grid_primary_voltage_2_kv": null, "phases": null, "notes": "PCE reporting includes diesel and hydro generation" }, "geometry": { "type": "Point", "coordinates": [ -135.3131, 59.4545 ] } },
{ "type": "Feature", "properties": { "aea_plant_id": 27, "eia_plant_id": 61685, "name": "Slana Generating Station ", "pce_reporting_id": 331195, "aea_operator_id": 5, "eia_operator_id": 219, "grid_id": 26, "service_area_geom_id": "2_10", "combined_heat_power": true, "grid_primary_voltage_kv": 12.47, "grid_primary_voltage_2_kv": null, "phases": null, "notes": null }, "geometry": { "type": "Point", "coordinates": [ -143.588869, 62.592756 ] } },
{ "type": "Feature", "properties": { "aea_plant_id": 28, "eia_plant_id": 7414, "name": "Thorne Bay Plant", "pce_reporting_id": 331210, "aea_operator_id": 5, "eia_operator_id": 219, "grid_id": 23, "service_area_geom_id": "2_2", "combined_heat_power": false, "grid_primary_voltage_kv": 4.16, "grid_primary_voltage_2_kv": null, "phases": null, "notes": null }, "geometry": { "type": "Point", "coordinates": [ -132.52892, 55.68586 ] } },
{ "type": "Feature", "properties": { "aea_plant_id": 29, "eia_plant_id": 406, "name": "Tok", "pce_reporting_id": 331220, "aea_operator_id": 5, "eia_operator_id": 219, "grid_id": 15, "service_area_geom_id": "2_13", "combined_heat_power": false, "grid_primary_voltage_kv": 12.47, "grid_primary_voltage_2_kv": null, "phases": null, "notes": null }, "geometry": { "type": "Point", "coordinates": [ -142.99997, 63.33552 ] } },
{ "type": "Feature", "properties": { "aea_plant_id": 30, "eia_plant_id": 7750, "name": "Allakaket", "pce_reporting_id": 331050, "aea_operator_id": 5, "eia_operator_id": 219, "grid_id": 5, "service_area_geom_id": "2_16", "combined_heat_power": true, "grid_primary_voltage_kv": 7.2, "grid_primary_voltage_2_kv": null, "phases": null, "notes": null }, "geometry": { "type": "Point", "coordinates": [ -152.64756, 66.56261 ] } },
{ "type": "Feature", "properties": { "aea_plant_id": 31, "eia_plant_id": 7176, "name": "Bettles", "pce_reporting_id": 331060, "aea_operator_id": 5, "eia_operator_id": 219, "grid_id": 7, "service_area_geom_id": "2_17", "combined_heat_power": false, "grid_primary_voltage_kv": 2.4, "grid_primary_voltage_2_kv": null, "phases": null, "notes": null }, "geometry": { "type": "Point", "coordinates": [ -151.51513, 66.91788 ] } },
{ "type": "Feature", "properties": { "aea_plant_id": 32, "eia_plant_id": 7332, "name": "Chistochina", "pce_reporting_id": 331070, "aea_operator_id": 5, "eia_operator_id": 219, "grid_id": 26, "service_area_geom_id": "2_9", "combined_heat_power": false, "grid_primary_voltage_kv": 7.2, "grid_primary_voltage_2_kv": null, "phases": null, "notes": null }, "geometry": { "type": "Point", "coordinates": [ -144.66472, 62.565 ] } },
{ "type": "Feature", "properties": { "aea_plant_id": 33, "eia_plant_id": 7342, "name": "Coffman Cove", "pce_reporting_id": 331080, "aea_operator_id": 5, "eia_operator_id": 219, "grid_id": 23, "service_area_geom_id": "2_4", "combined_heat_power": false, "grid_primary_voltage_kv": 2.4, "grid_primary_voltage_2_kv": null, "phases": null, "notes": null }, "geometry": { "type": "Point", "coordinates": [ -132.82778, 56.01389 ] } },
{ "type": "Feature", "properties": { "aea_plant_id": 34, "eia_plant_id": 7375, "name": "Eagle", "pce_reporting_id": 331110, "aea_operator_id": 5, "eia_operator_id": 219, "grid_id": 9, "service_area_geom_id": "2_15", "combined_heat_power": true, "grid_primary_voltage_kv": 7.2, "grid_primary_voltage_2_kv": null, "phases": null, "notes": null }, "geometry": { "type": "Point", "coordinates": [ -141.2, 64.78806 ] } },
{ "type": "Feature", "properties": { "aea_plant_id": 35, "eia_plant_id": null, "name": "Gustavus", "pce_reporting_id": 332010, "aea_operator_id": 5, "eia_operator_id": 219, "grid_id": 118, "service_area_geom_id": "2_6", "combined_heat_power": false, "grid_primary_voltage_kv": 7.2, "grid_primary_voltage_2_kv": null, "phases": null, "notes": null }, "geometry": { "type": "Point", "coordinates": [ -135.73694, 58.41333 ] } },
{ "type": "Feature", "properties": { "aea_plant_id": 36, "eia_plant_id": 7506, "name": "Healy Lake", "pce_reporting_id": 331130, "aea_operator_id": 5, "eia_operator_id": 219, "grid_id": 11, "service_area_geom_id": "2_14", "combined_heat_power": false, "grid_primary_voltage_kv": 2.4, "grid_primary_voltage_2_kv": null, "phases": null, "notes": null }, "geometry": { "type": "Point", "coordinates": [ -144.66162, 64.02689 ] } },
{ "type": "Feature", "properties": { "aea_plant_id": 37, "eia_plant_id": 7249, "name": "Hollis", "pce_reporting_id": 331140, "aea_operator_id": 5, "eia_operator_id": 219, "grid_id": 23, "service_area_geom_id": null, "combined_heat_power": false, "grid_primary_voltage_kv": 2.4, "grid_primary_voltage_2_kv": null, "phases": null, "notes": null }, "geometry": null },
{ "type": "Feature", "properties": { "aea_plant_id": 38, "eia_plant_id": 7341, "name": "Mentasta Lake", "pce_reporting_id": 331160, "aea_operator_id": 5, "eia_operator_id": 219, "grid_id": 26, "service_area_geom_id": "2_11", "combined_heat_power": false, "grid_primary_voltage_kv": null, "grid_primary_voltage_2_kv": null, "phases": null, "notes": null }, "geometry": { "type": "Point", "coordinates": [ -143.79273, 62.93155 ] } },
{ "type": "Feature", "properties": { "aea_plant_id": 39, "eia_plant_id": 7371, "name": "Tetlin", "pce_reporting_id": 331200, "aea_operator_id": 5, "eia_operator_id": 219, "grid_id": 15, "service_area_geom_id": "2_13", "combined_heat_power": false, "grid_primary_voltage_kv": null, "grid_primary_voltage_2_kv": null, "phases": null, "notes": null }, "geometry": { "type": "Point", "coordinates": [ -142.51611, 63.13722 ] } },
{ "type": "Feature", "properties": { "aea_plant_id": 40, "eia_plant_id": 7753, "name": "Whale Pass", "pce_reporting_id": 331230, "aea_operator_id": 5, "eia_operator_id": 219, "grid_id": 213, "service_area_geom_id": "2_5", "combined_heat_power": false, "grid_primary_voltage_kv": 2.4, "grid_primary_voltage_2_kv": null, "phases": null, "notes": null }, "geometry": { "type": "Point", "coordinates": [ -133.12083, 56.11528 ] } },
{ "type": "Feature", "properties": { "aea_plant_id": 41, "eia_plant_id": null, "name": "Dewey LakesÂ ", "pce_reporting_id": null, "aea_operator_id": 5, "eia_operator_id": 219, "grid_id": 32, "service_area_geom_id": "2_8", "combined_heat_power": false, "grid_primary_voltage_kv": null, "grid_primary_voltage_2_kv": null, "phases": null, "notes": "Included in PCE reporting as \"Purchased Power\"" }, "geometry": { "type": "Point", "coordinates": [ -135.3081, 59.4511 ] } },
{ "type": "Feature", "properties": { "aea_plant_id": 42, "eia_plant_id": null, "name": "Lutak", "pce_reporting_id": null, "aea_operator_id": 5, "eia_operator_id": 219, "grid_id": 32, "service_area_geom_id": "2_7", "combined_heat_power": false, "grid_primary_voltage_kv": null, "grid_primary_voltage_2_kv": null, "phases": null, "notes": "Included in PCE reporting as \"Purchased Power\"" }, "geometry": { "type": "Point", "coordinates": [ -135.56555560000001, 59.3411111 ] } },
{ "type": "Feature", "properties": { "aea_plant_id": 43, "eia_plant_id": 7792, "name": "Naukati Bay", "pce_reporting_id": 331170, "aea_operator_id": 5, "eia_operator_id": 219, "grid_id": 23, "service_area_geom_id": "2_3", "combined_heat_power": false, "grid_primary_voltage_kv": null, "grid_primary_voltage_2_kv": null, "phases": null, "notes": null }, "geometry": { "type": "Point", "coordinates": [ -133.195, 55.88077 ] } },
{ "type": "Feature", "properties": { "aea_plant_id": 44, "eia_plant_id": 60814, "name": "7-Mile Ridge Wind Project", "pce_reporting_id": null, "aea_operator_id": 5, "eia_operator_id": 219, "grid_id": null, "service_area_geom_id": "2_13", "combined_heat_power": false, "grid_primary_voltage_kv": null, "grid_primary_voltage_2_kv": null, "phases": null, "notes": null }, "geometry": { "type": "Point", "coordinates": [ -143.247156, 63.210689 ] } },
{ "type": "Feature", "properties": { "aea_plant_id": 45, "eia_plant_id": 6308, "name": "Alakanuk", "pce_reporting_id": 331240, "aea_operator_id": 6, "eia_operator_id": 221, "grid_id": 218, "service_area_geom_id": "169_21", "combined_heat_power": false, "grid_primary_voltage_kv": 13.47, "grid_primary_voltage_2_kv": null, "phases": null, "notes": null }, "geometry": { "type": "Point", "coordinates": [ -164.6544, 62.6833 ] } },
{ "type": "Feature", "properties": { "aea_plant_id": 45, "eia_plant_id": 57053, "name": "Alakanuk", "pce_reporting_id": 331240, "aea_operator_id": 6, "eia_operator_id": 221, "grid_id": 218, "service_area_geom_id": "169_21", "combined_heat_power": false, "grid_primary_voltage_kv": 13.47, "grid_primary_voltage_2_kv": null, "phases": null, "notes": null }, "geometry": { "type": "Point", "coordinates": [ -164.6544, 62.6833 ] } },
{ "type": "Feature", "properties": { "aea_plant_id": 46, "eia_plant_id": 60243, "name": "Ambler", "pce_reporting_id": 331250, "aea_operator_id": 6, "eia_operator_id": 221, "grid_id": 35, "service_area_geom_id": "169_42", "combined_heat_power": true, "grid_primary_voltage_kv": 12.5, "grid_primary_voltage_2_kv": null, "phases": null, "notes": null }, "geometry": { "type": "Point", "coordinates": [ -157.856719, 67.08798 ] } },
{ "type": "Feature", "properties": { "aea_plant_id": 46, "eia_plant_id": 6556, "name": "Ambler", "pce_reporting_id": 331250, "aea_operator_id": 6, "eia_operator_id": 221, "grid_id": 35, "service_area_geom_id": "169_42", "combined_heat_power": true, "grid_primary_voltage_kv": 12.5, "grid_primary_voltage_2_kv": null, "phases": null, "notes": null }, "geometry": { "type": "Point", "coordinates": [ -157.856719, 67.08798 ] } },
{ "type": "Feature", "properties": { "aea_plant_id": 47, "eia_plant_id": 6566, "name": "Bethel", "pce_reporting_id": 331800, "aea_operator_id": 6, "eia_operator_id": 221, "grid_id": 34, "service_area_geom_id": "169_49", "combined_heat_power": false, "grid_primary_voltage_kv": 2.4, "grid_primary_voltage_2_kv": null, "phases": null, "notes": null }, "geometry": { "type": "Point", "coordinates": [ -161.787778, 60.7897 ] } },
{ "type": "Feature", "properties": { "aea_plant_id": 48, "eia_plant_id": 60260, "name": "Brevig Mission", "pce_reporting_id": 331270, "aea_operator_id": 6, "eia_operator_id": 221, "grid_id": 39, "service_area_geom_id": "169_34", "combined_heat_power": false, "grid_primary_voltage_kv": 12.5, "grid_primary_voltage_2_kv": null, "phases": null, "notes": null }, "geometry": { "type": "Point", "coordinates": [ -166.479506, 65.331716 ] } },
{ "type": "Feature", "properties": { "aea_plant_id": 48, "eia_plant_id": 7374, "name": "Brevig Mission", "pce_reporting_id": 331270, "aea_operator_id": 6, "eia_operator_id": 221, "grid_id": 39, "service_area_geom_id": "169_34", "combined_heat_power": false, "grid_primary_voltage_kv": 12.5, "grid_primary_voltage_2_kv": null, "phases": null, "notes": null }, "geometry": { "type": "Point", "coordinates": [ -166.479506, 65.331716 ] } },
{ "type": "Feature", "properties": { "aea_plant_id": 49, "eia_plant_id": 6311, "name": "Chevak", "pce_reporting_id": 331280, "aea_operator_id": 6, "eia_operator_id": 221, "grid_id": 40, "service_area_geom_id": "169_12", "combined_heat_power": true, "grid_primary_voltage_kv": 12.5, "grid_primary_voltage_2_kv": null, "phases": null, "notes": null }, "geometry": { "type": "Point", "coordinates": [ -165.590152, 61.525297 ] } },
{ "type": "Feature", "properties": { "aea_plant_id": 50, "eia_plant_id": 57060, "name": "Elim", "pce_reporting_id": 331300, "aea_operator_id": 6, "eia_operator_id": 221, "grid_id": 43, "service_area_geom_id": "169_30", "combined_heat_power": false, "grid_primary_voltage_kv": 13.47, "grid_primary_voltage_2_kv": null, "phases": null, "notes": null }, "geometry": { "type": "Point", "coordinates": [ -162.263717, 64.616558 ] } },
{ "type": "Feature", "properties": { "aea_plant_id": 50, "eia_plant_id": 6313, "name": "Elim", "pce_reporting_id": 331300, "aea_operator_id": 6, "eia_operator_id": 221, "grid_id": 43, "service_area_geom_id": "169_30", "combined_heat_power": false, "grid_primary_voltage_kv": 13.47, "grid_primary_voltage_2_kv": null, "phases": null, "notes": null }, "geometry": { "type": "Point", "coordinates": [ -162.263717, 64.616558 ] } },
{ "type": "Feature", "properties": { "aea_plant_id": 51, "eia_plant_id": 6314, "name": "Emmonak", "pce_reporting_id": 331310, "aea_operator_id": 6, "eia_operator_id": 221, "grid_id": 45, "service_area_geom_id": "169_23", "combined_heat_power": true, "grid_primary_voltage_kv": 12.5, "grid_primary_voltage_2_kv": null, "phases": null, "notes": null }, "geometry": { "type": "Point", "coordinates": [ -164.531517, 62.777694 ] } },
{ "type": "Feature", "properties": { "aea_plant_id": 52, "eia_plant_id": 57062, "name": "Gambell", "pce_reporting_id": 331320, "aea_operator_id": 6, "eia_operator_id": 221, "grid_id": 46, "service_area_geom_id": "169_27", "combined_heat_power": true, "grid_primary_voltage_kv": 13.47, "grid_primary_voltage_2_kv": null, "phases": null, "notes": null }, "geometry": { "type": "Point", "coordinates": [ -171.712439, 63.777058 ] } },
{ "type": "Feature", "properties": { "aea_plant_id": 52, "eia_plant_id": 6315, "name": "Gambell", "pce_reporting_id": 331320, "aea_operator_id": 6, "eia_operator_id": 221, "grid_id": 46, "service_area_geom_id": "169_27", "combined_heat_power": true, "grid_primary_voltage_kv": 13.47, "grid_primary_voltage_2_kv": null, "phases": null, "notes": null }, "geometry": { "type": "Point", "coordinates": [ -171.712439, 63.777058 ] } },
{ "type": "Feature", "properties": { "aea_plant_id": 53, "eia_plant_id": 6319, "name": "Hooper Bay", "pce_reporting_id": 331360, "aea_operator_id": 6, "eia_operator_id": 221, "grid_id": 50, "service_area_geom_id": "169_11", "combined_heat_power": true, "grid_primary_voltage_kv": 12.5, "grid_primary_voltage_2_kv": null, "phases": null, "notes": null }, "geometry": { "type": "Point", "coordinates": [ -166.101944, 61.530858 ] } },
{ "type": "Feature", "properties": { "aea_plant_id": 54, "eia_plant_id": 57066, "name": "Kasigluk", "pce_reporting_id": 331390, "aea_operator_id": 6, "eia_operator_id": 221, "grid_id": 55, "service_area_geom_id": "169_10", "combined_heat_power": true, "grid_primary_voltage_kv": 13.47, "grid_primary_voltage_2_kv": null, "phases": null, "notes": null }, "geometry": { "type": "Point", "coordinates": [ -162.5197, 60.8731 ] } },
{ "type": "Feature", "properties": { "aea_plant_id": 55, "eia_plant_id": 6323, "name": "Kiana", "pce_reporting_id": 331400, "aea_operator_id": 6, "eia_operator_id": 221, "grid_id": 57, "service_area_geom_id": "169_41", "combined_heat_power": true, "grid_primary_voltage_kv": 12.5, "grid_primary_voltage_2_kv": null, "phases": null, "notes": null }, "geometry": { "type": "Point", "coordinates": [ -160.428592, 66.973889 ] } },
{ "type": "Feature", "properties": { "aea_plant_id": 56, "eia_plant_id": 57065, "name": "Kivalina", "pce_reporting_id": 331410, "aea_operator_id": 6, "eia_operator_id": 221, "grid_id": 58, "service_area_geom_id": "169_44", "combined_heat_power": true, "grid_primary_voltage_kv": 13.47, "grid_primary_voltage_2_kv": null, "phases": null, "notes": null }, "geometry": { "type": "Point", "coordinates": [ -164.538447, 67.726644 ] } },
{ "type": "Feature", "properties": { "aea_plant_id": 56, "eia_plant_id": 6324, "name": "Kivalina", "pce_reporting_id": 331410, "aea_operator_id": 6, "eia_operator_id": 221, "grid_id": 58, "service_area_geom_id": "169_44", "combined_heat_power": true, "grid_primary_voltage_kv": 13.47, "grid_primary_voltage_2_kv": null, "phases": null, "notes": null }, "geometry": { "type": "Point", "coordinates": [ -164.538447, 67.726644 ] } },
{ "type": "Feature", "properties": { "aea_plant_id": 57, "eia_plant_id": 57064, "name": "Kotlik", "pce_reporting_id": 332120, "aea_operator_id": 6, "eia_operator_id": 221, "grid_id": 59, "service_area_geom_id": "169_46", "combined_heat_power": true, "grid_primary_voltage_kv": 13.47, "grid_primary_voltage_2_kv": null, "phases": null, "notes": null }, "geometry": { "type": "Point", "coordinates": [ -163.553106, 63.03215 ] } },
{ "type": "Feature", "properties": { "aea_plant_id": 58, "eia_plant_id": 6325, "name": "Koyuk", "pce_reporting_id": 331420, "aea_operator_id": 6, "eia_operator_id": 221, "grid_id": 60, "service_area_geom_id": "169_32", "combined_heat_power": true, "grid_primary_voltage_kv": 13.47, "grid_primary_voltage_2_kv": null, "phases": null, "notes": null }, "geometry": { "type": "Point", "coordinates": [ -161.167103, 64.932089 ] } },
{ "type": "Feature", "properties": { "aea_plant_id": 58, "eia_plant_id": 57059, "name": "Koyuk", "pce_reporting_id": 331420, "aea_operator_id": 6, "eia_operator_id": 221, "grid_id": 60, "service_area_geom_id": "169_32", "combined_heat_power": true, "grid_primary_voltage_kv": 13.47, "grid_primary_voltage_2_kv": null, "phases": null, "notes": null }, "geometry": { "type": "Point", "coordinates": [ -161.167103, 64.932089 ] } },
{ "type": "Feature", "properties": { "aea_plant_id": 59, "eia_plant_id": 60244, "name": "Marshall", "pce_reporting_id": 331440, "aea_operator_id": 6, "eia_operator_id": 221, "grid_id": 61, "service_area_geom_id": "169_16", "combined_heat_power": true, "grid_primary_voltage_kv": 12.5, "grid_primary_voltage_2_kv": null, "phases": null, "notes": null }, "geometry": { "type": "Point", "coordinates": [ -162.085147, 61.878186 ] } },
{ "type": "Feature", "properties": { "aea_plant_id": 59, "eia_plant_id": 6326, "name": "Marshall", "pce_reporting_id": 331440, "aea_operator_id": 6, "eia_operator_id": 221, "grid_id": 61, "service_area_geom_id": "169_16", "combined_heat_power": true, "grid_primary_voltage_kv": 12.5, "grid_primary_voltage_2_kv": null, "phases": null, "notes": null }, "geometry": { "type": "Point", "coordinates": [ -162.085147, 61.878186 ] } },
{ "type": "Feature", "properties": { "aea_plant_id": 60, "eia_plant_id": 6329, "name": "Mountain Village", "pce_reporting_id": 331470, "aea_operator_id": 6, "eia_operator_id": 221, "grid_id": 75, "service_area_geom_id": "169_18", "combined_heat_power": false, "grid_primary_voltage_kv": 12.5, "grid_primary_voltage_2_kv": null, "phases": null, "notes": null }, "geometry": { "type": "Point", "coordinates": [ -163.729072, 62.085569 ] } },
{ "type": "Feature", "properties": { "aea_plant_id": 61, "eia_plant_id": 6334, "name": "New Stuyahok", "pce_reporting_id": 331480, "aea_operator_id": 6, "eia_operator_id": 221, "grid_id": 65, "service_area_geom_id": "169_4", "combined_heat_power": true, "grid_primary_voltage_kv": 12.5, "grid_primary_voltage_2_kv": null, "phases": null, "notes": null }, "geometry": { "type": "Point", "coordinates": [ -157.325528, 59.448358 ] } },
{ "type": "Feature", "properties": { "aea_plant_id": 61, "eia_plant_id": 60245, "name": "New Stuyahok", "pce_reporting_id": 331480, "aea_operator_id": 6, "eia_operator_id": 221, "grid_id": 65, "service_area_geom_id": "169_4", "combined_heat_power": true, "grid_primary_voltage_kv": 12.5, "grid_primary_voltage_2_kv": null, "phases": null, "notes": null }, "geometry": { "type": "Point", "coordinates": [ -157.325528, 59.448358 ] } },
{ "type": "Feature", "properties": { "aea_plant_id": 62, "eia_plant_id": 6331, "name": "Noatak", "pce_reporting_id": 331500, "aea_operator_id": 6, "eia_operator_id": 221, "grid_id": 66, "service_area_geom_id": "169_43", "combined_heat_power": true, "grid_primary_voltage_kv": 13.47, "grid_primary_voltage_2_kv": null, "phases": null, "notes": null }, "geometry": { "type": "Point", "coordinates": [ -162.965728, 67.570931 ] } },
{ "type": "Feature", "properties": { "aea_plant_id": 62, "eia_plant_id": 57051, "name": "Noatak", "pce_reporting_id": 331500, "aea_operator_id": 6, "eia_operator_id": 221, "grid_id": 66, "service_area_geom_id": "169_43", "combined_heat_power": true, "grid_primary_voltage_kv": 13.47, "grid_primary_voltage_2_kv": null, "phases": null, "notes": null }, "geometry": { "type": "Point", "coordinates": [ -162.965728, 67.570931 ] } },
{ "type": "Feature", "properties": { "aea_plant_id": 63, "eia_plant_id": 6330, "name": "Noorvik", "pce_reporting_id": 331510, "aea_operator_id": 6, "eia_operator_id": 221, "grid_id": 67, "service_area_geom_id": "169_39", "combined_heat_power": true, "grid_primary_voltage_kv": 12.5, "grid_primary_voltage_2_kv": null, "phases": null, "notes": null }, "geometry": { "type": "Point", "coordinates": [ -161.038717, 66.834519 ] } },
{ "type": "Feature", "properties": { "aea_plant_id": 64, "eia_plant_id": 6333, "name": "Nunapitchuk", "pce_reporting_id": 331530, "aea_operator_id": 6, "eia_operator_id": 221, "grid_id": 204, "service_area_geom_id": "169_10", "combined_heat_power": false, "grid_primary_voltage_kv": 12.5, "grid_primary_voltage_2_kv": null, "phases": null, "notes": null }, "geometry": { "type": "Point", "coordinates": [ -162.459756, 60.89588 ] } },
{ "type": "Feature", "properties": { "aea_plant_id": 65, "eia_plant_id": 57058, "name": "Pilot Station", "pce_reporting_id": 331550, "aea_operator_id": 6, "eia_operator_id": 221, "grid_id": 70, "service_area_geom_id": "169_17", "combined_heat_power": true, "grid_primary_voltage_kv": 13.47, "grid_primary_voltage_2_kv": null, "phases": null, "notes": null }, "geometry": { "type": "Point", "coordinates": [ -162.880706, 61.936456 ] } },
{ "type": "Feature", "properties": { "aea_plant_id": 65, "eia_plant_id": 6335, "name": "Pilot Station", "pce_reporting_id": 331550, "aea_operator_id": 6, "eia_operator_id": 221, "grid_id": 70, "service_area_geom_id": "169_17", "combined_heat_power": true, "grid_primary_voltage_kv": 13.47, "grid_primary_voltage_2_kv": null, "phases": null, "notes": null }, "geometry": { "type": "Point", "coordinates": [ -162.880706, 61.936456 ] } },
{ "type": "Feature", "properties": { "aea_plant_id": 66, "eia_plant_id": 57057, "name": "Quinhagak", "pce_reporting_id": 331570, "aea_operator_id": 6, "eia_operator_id": 221, "grid_id": 71, "service_area_geom_id": "169_5", "combined_heat_power": true, "grid_primary_voltage_kv": 13.47, "grid_primary_voltage_2_kv": null, "phases": null, "notes": null }, "geometry": { "type": "Point", "coordinates": [ -161.910647, 59.747436 ] } },
{ "type": "Feature", "properties": { "aea_plant_id": 66, "eia_plant_id": 6337, "name": "Quinhagak", "pce_reporting_id": 331570, "aea_operator_id": 6, "eia_operator_id": 221, "grid_id": 71, "service_area_geom_id": "169_5", "combined_heat_power": true, "grid_primary_voltage_kv": 13.47, "grid_primary_voltage_2_kv": null, "phases": null, "notes": null }, "geometry": { "type": "Point", "coordinates": [ -161.910647, 59.747436 ] } },
{ "type": "Feature", "properties": { "aea_plant_id": 67, "eia_plant_id": 6338, "name": "Saint Mary's", "pce_reporting_id": 331660, "aea_operator_id": 6, "eia_operator_id": 221, "grid_id": 75, "service_area_geom_id": "169_18", "combined_heat_power": true, "grid_primary_voltage_kv": 12.5, "grid_primary_voltage_2_kv": null, "phases": null, "notes": null }, "geometry": { "type": "Point", "coordinates": [ -163.172567, 62.051525 ] } },
{ "type": "Feature", "properties": { "aea_plant_id": 68, "eia_plant_id": 6340, "name": "Savoonga", "pce_reporting_id": 331590, "aea_operator_id": 6, "eia_operator_id": 221, "grid_id": 76, "service_area_geom_id": "169_26", "combined_heat_power": true, "grid_primary_voltage_kv": 13.47, "grid_primary_voltage_2_kv": null, "phases": null, "notes": null }, "geometry": { "type": "Point", "coordinates": [ -170.475661, 63.695267 ] } },
{ "type": "Feature", "properties": { "aea_plant_id": 68, "eia_plant_id": 57052, "name": "Savoonga", "pce_reporting_id": 331590, "aea_operator_id": 6, "eia_operator_id": 221, "grid_id": 76, "service_area_geom_id": "169_26", "combined_heat_power": true, "grid_primary_voltage_kv": 13.47, "grid_primary_voltage_2_kv": null, "phases": null, "notes": null }, "geometry": { "type": "Point", "coordinates": [ -170.475661, 63.695267 ] } },
{ "type": "Feature", "properties": { "aea_plant_id": 69, "eia_plant_id": 57056, "name": "Scammon Bay", "pce_reporting_id": 331600, "aea_operator_id": 6, "eia_operator_id": 221, "grid_id": 77, "service_area_geom_id": "169_15", "combined_heat_power": true, "grid_primary_voltage_kv": 13.47, "grid_primary_voltage_2_kv": null, "phases": null, "notes": null }, "geometry": { "type": "Point", "coordinates": [ -165.581497, 61.843036 ] } },
{ "type": "Feature", "properties": { "aea_plant_id": 69, "eia_plant_id": 6342, "name": "Scammon Bay", "pce_reporting_id": 331600, "aea_operator_id": 6, "eia_operator_id": 221, "grid_id": 77, "service_area_geom_id": "169_15", "combined_heat_power": true, "grid_primary_voltage_kv": 13.47, "grid_primary_voltage_2_kv": null, "phases": null, "notes": null }, "geometry": { "type": "Point", "coordinates": [ -165.581497, 61.843036 ] } },
{ "type": "Feature", "properties": { "aea_plant_id": 70, "eia_plant_id": 6341, "name": "Selawik", "pce_reporting_id": 331610, "aea_operator_id": 6, "eia_operator_id": 221, "grid_id": 78, "service_area_geom_id": "169_38", "combined_heat_power": true, "grid_primary_voltage_kv": 12.5, "grid_primary_voltage_2_kv": null, "phases": null, "notes": null }, "geometry": { "type": "Point", "coordinates": [ -160.014808, 66.606778 ] } },
{ "type": "Feature", "properties": { "aea_plant_id": 71, "eia_plant_id": 6345, "name": "Shishmaref", "pce_reporting_id": 331640, "aea_operator_id": 6, "eia_operator_id": 221, "grid_id": 81, "service_area_geom_id": "169_37", "combined_heat_power": false, "grid_primary_voltage_kv": 12.5, "grid_primary_voltage_2_kv": null, "phases": null, "notes": null }, "geometry": { "type": "Point", "coordinates": [ -166.073589, 66.255072 ] } },
{ "type": "Feature", "properties": { "aea_plant_id": 72, "eia_plant_id": 6346, "name": "Shungnak", "pce_reporting_id": 331650, "aea_operator_id": 6, "eia_operator_id": 221, "grid_id": 149, "service_area_geom_id": "169_40", "combined_heat_power": true, "grid_primary_voltage_kv": 13.47, "grid_primary_voltage_2_kv": null, "phases": null, "notes": null }, "geometry": { "type": "Point", "coordinates": [ -157.140206, 66.888114 ] } },
{ "type": "Feature", "properties": { "aea_plant_id": 72, "eia_plant_id": 57063, "name": "Shungnak", "pce_reporting_id": 331650, "aea_operator_id": 6, "eia_operator_id": 221, "grid_id": 149, "service_area_geom_id": "169_40", "combined_heat_power": true, "grid_primary_voltage_kv": 13.47, "grid_primary_voltage_2_kv": null, "phases": null, "notes": null }, "geometry": { "type": "Point", "coordinates": [ -157.140206, 66.888114 ] } },
{ "type": "Feature", "properties": { "aea_plant_id": 73, "eia_plant_id": 6339, "name": "Saint Michael", "pce_reporting_id": 331670, "aea_operator_id": 6, "eia_operator_id": 221, "grid_id": 84, "service_area_geom_id": "169_25", "combined_heat_power": false, "grid_primary_voltage_kv": 13.47, "grid_primary_voltage_2_kv": null, "phases": null, "notes": null }, "geometry": { "type": "Point", "coordinates": [ -162.0383, 63.4775 ] } },
{ "type": "Feature", "properties": { "aea_plant_id": 73, "eia_plant_id": 57061, "name": "Saint Michael", "pce_reporting_id": 331670, "aea_operator_id": 6, "eia_operator_id": 221, "grid_id": 84, "service_area_geom_id": "169_25", "combined_heat_power": false, "grid_primary_voltage_kv": 13.47, "grid_primary_voltage_2_kv": null, "phases": null, "notes": null }, "geometry": { "type": "Point", "coordinates": [ -162.0383, 63.4775 ] } },
{ "type": "Feature", "properties": { "aea_plant_id": 74, "eia_plant_id": 57055, "name": "Stebbins", "pce_reporting_id": 331680, "aea_operator_id": 6, "eia_operator_id": 221, "grid_id": 84, "service_area_geom_id": "169_25", "combined_heat_power": true, "grid_primary_voltage_kv": 13.47, "grid_primary_voltage_2_kv": null, "phases": null, "notes": null }, "geometry": { "type": "Point", "coordinates": [ -162.286322, 63.521047 ] } },
{ "type": "Feature", "properties": { "aea_plant_id": 74, "eia_plant_id": 6347, "name": "Stebbins", "pce_reporting_id": 331680, "aea_operator_id": 6, "eia_operator_id": 221, "grid_id": 84, "service_area_geom_id": "169_25", "combined_heat_power": true, "grid_primary_voltage_kv": 13.47, "grid_primary_voltage_2_kv": null, "phases": null, "notes": null }, "geometry": { "type": "Point", "coordinates": [ -162.286322, 63.521047 ] } },
{ "type": "Feature", "properties": { "aea_plant_id": 75, "eia_plant_id": 6348, "name": "Togiak", "pce_reporting_id": 331690, "aea_operator_id": 6, "eia_operator_id": 221, "grid_id": 86, "service_area_geom_id": "169_2", "combined_heat_power": true, "grid_primary_voltage_kv": 12.5, "grid_primary_voltage_2_kv": null, "phases": null, "notes": null }, "geometry": { "type": "Point", "coordinates": [ -160.380278, 59.059744 ] } },
{ "type": "Feature", "properties": { "aea_plant_id": 76, "eia_plant_id": 57067, "name": "Toksook Bay", "pce_reporting_id": 331700, "aea_operator_id": 6, "eia_operator_id": 221, "grid_id": 88, "service_area_geom_id": "169_9", "combined_heat_power": true, "grid_primary_voltage_kv": 13.47, "grid_primary_voltage_2_kv": null, "phases": null, "notes": null }, "geometry": { "type": "Point", "coordinates": [ -165.108575, 60.530142 ] } },
{ "type": "Feature", "properties": { "aea_plant_id": 76, "eia_plant_id": 6349, "name": "Toksook Bay", "pce_reporting_id": 331700, "aea_operator_id": 6, "eia_operator_id": 221, "grid_id": 88, "service_area_geom_id": "169_9", "combined_heat_power": true, "grid_primary_voltage_kv": 13.47, "grid_primary_voltage_2_kv": null, "phases": null, "notes": null }, "geometry": { "type": "Point", "coordinates": [ -165.108575, 60.530142 ] } },
{ "type": "Feature", "properties": { "aea_plant_id": 77, "eia_plant_id": 57054, "name": "Upper Kalskag", "pce_reporting_id": 331720, "aea_operator_id": 6, "eia_operator_id": 221, "grid_id": 52, "service_area_geom_id": "169_13", "combined_heat_power": false, "grid_primary_voltage_kv": 13.47, "grid_primary_voltage_2_kv": null, "phases": null, "notes": null }, "geometry": { "type": "Point", "coordinates": [ -160.348128, 61.526858 ] } },
{ "type": "Feature", "properties": { "aea_plant_id": 78, "eia_plant_id": 6637, "name": "Yakutat", "pce_reporting_id": 332900, "aea_operator_id": 6, "eia_operator_id": 221, "grid_id": 91, "service_area_geom_id": "169_51", "combined_heat_power": true, "grid_primary_voltage_kv": 4.16, "grid_primary_voltage_2_kv": null, "phases": null, "notes": null }, "geometry": { "type": "Point", "coordinates": [ -139.724306, 59.544553 ] } },
{ "type": "Feature", "properties": { "aea_plant_id": 79, "eia_plant_id": 6310, "name": "Anvik", "pce_reporting_id": 331260, "aea_operator_id": 6, "eia_operator_id": 221, "grid_id": 36, "service_area_geom_id": "169_20", "combined_heat_power": true, "grid_primary_voltage_kv": 7.2, "grid_primary_voltage_2_kv": null, "phases": null, "notes": null }, "geometry": { "type": "Point", "coordinates": [ -160.20667, 62.65611 ] } },
{ "type": "Feature", "properties": { "aea_plant_id": 80, "eia_plant_id": 6312, "name": "Eek", "pce_reporting_id": 331290, "aea_operator_id": 6, "eia_operator_id": 221, "grid_id": 41, "service_area_geom_id": "169_6", "combined_heat_power": true, "grid_primary_voltage_kv": 7.2, "grid_primary_voltage_2_kv": null, "phases": null, "notes": null }, "geometry": { "type": "Point", "coordinates": [ -162.02444, 60.21889 ] } },
{ "type": "Feature", "properties": { "aea_plant_id": 81, "eia_plant_id": null, "name": "Ekwok", "pce_reporting_id": 331950, "aea_operator_id": 6, "eia_operator_id": 221, "grid_id": 208, "service_area_geom_id": null, "combined_heat_power": false, "grid_primary_voltage_kv": 7.2, "grid_primary_voltage_2_kv": null, "phases": null, "notes": null }, "geometry": null },
{ "type": "Feature", "properties": { "aea_plant_id": 82, "eia_plant_id": 6316, "name": "Goodnews Bay", "pce_reporting_id": 331330, "aea_operator_id": 6, "eia_operator_id": 221, "grid_id": 47, "service_area_geom_id": "169_3", "combined_heat_power": true, "grid_primary_voltage_kv": 7.2, "grid_primary_voltage_2_kv": null, "phases": null, "notes": null }, "geometry": { "type": "Point", "coordinates": [ -161.5875, 59.11889 ] } },
{ "type": "Feature", "properties": { "aea_plant_id": 83, "eia_plant_id": 6317, "name": "Grayling", "pce_reporting_id": 331340, "aea_operator_id": 6, "eia_operator_id": 221, "grid_id": 48, "service_area_geom_id": "169_24", "combined_heat_power": false, "grid_primary_voltage_kv": 7.2, "grid_primary_voltage_2_kv": null, "phases": null, "notes": null }, "geometry": { "type": "Point", "coordinates": [ -160.06472, 62.90361 ] } },
{ "type": "Feature", "properties": { "aea_plant_id": 84, "eia_plant_id": 6318, "name": "Holy Cross", "pce_reporting_id": 331350, "aea_operator_id": 6, "eia_operator_id": 221, "grid_id": 49, "service_area_geom_id": "169_19", "combined_heat_power": false, "grid_primary_voltage_kv": 7.2, "grid_primary_voltage_2_kv": null, "phases": null, "notes": null }, "geometry": { "type": "Point", "coordinates": [ -159.77139, 62.19944 ] } },
{ "type": "Feature", "properties": { "aea_plant_id": 85, "eia_plant_id": 6320, "name": "Huslia", "pce_reporting_id": 331370, "aea_operator_id": 6, "eia_operator_id": 221, "grid_id": 51, "service_area_geom_id": "169_36", "combined_heat_power": true, "grid_primary_voltage_kv": 7.2, "grid_primary_voltage_2_kv": null, "phases": null, "notes": null }, "geometry": { "type": "Point", "coordinates": [ -156.39972, 65.69861 ] } },
{ "type": "Feature", "properties": { "aea_plant_id": 86, "eia_plant_id": 6322, "name": "Kaltag", "pce_reporting_id": 331380, "aea_operator_id": 6, "eia_operator_id": 221, "grid_id": 54, "service_area_geom_id": "169_28", "combined_heat_power": true, "grid_primary_voltage_kv": 7.2, "grid_primary_voltage_2_kv": null, "phases": null, "notes": null }, "geometry": { "type": "Point", "coordinates": [ -158.72194, 64.32722 ] } },
{ "type": "Feature", "properties": { "aea_plant_id": 87, "eia_plant_id": 6327, "name": "Mekoryuk", "pce_reporting_id": 331450, "aea_operator_id": 6, "eia_operator_id": 221, "grid_id": 62, "service_area_geom_id": "169_7", "combined_heat_power": true, "grid_primary_voltage_kv": 7.2, "grid_primary_voltage_2_kv": null, "phases": null, "notes": null }, "geometry": { "type": "Point", "coordinates": [ -166.185, 60.38806 ] } },
{ "type": "Feature", "properties": { "aea_plant_id": 88, "eia_plant_id": 6328, "name": "Minto", "pce_reporting_id": 331460, "aea_operator_id": 6, "eia_operator_id": 221, "grid_id": 63, "service_area_geom_id": "169_33", "combined_heat_power": true, "grid_primary_voltage_kv": 7.2, "grid_primary_voltage_2_kv": null, "phases": null, "notes": null }, "geometry": { "type": "Point", "coordinates": [ -149.33694, 65.15333 ] } },
{ "type": "Feature", "properties": { "aea_plant_id": 89, "eia_plant_id": null, "name": "Nightmute", "pce_reporting_id": 331490, "aea_operator_id": 6, "eia_operator_id": 221, "grid_id": 88, "service_area_geom_id": "169_8", "combined_heat_power": false, "grid_primary_voltage_kv": 7.2, "grid_primary_voltage_2_kv": null, "phases": null, "notes": null }, "geometry": { "type": "Point", "coordinates": [ -164.72389, 60.47944 ] } },
{ "type": "Feature", "properties": { "aea_plant_id": 90, "eia_plant_id": 6332, "name": "Nulato", "pce_reporting_id": 331520, "aea_operator_id": 6, "eia_operator_id": 221, "grid_id": 68, "service_area_geom_id": "169_31", "combined_heat_power": false, "grid_primary_voltage_kv": 7.2, "grid_primary_voltage_2_kv": null, "phases": null, "notes": null }, "geometry": { "type": "Point", "coordinates": [ -158.10306, 64.71944 ] } },
{ "type": "Feature", "properties": { "aea_plant_id": 91, "eia_plant_id": 6557, "name": "Old Harbor", "pce_reporting_id": 331540, "aea_operator_id": 6, "eia_operator_id": 221, "grid_id": 69, "service_area_geom_id": "169_1", "combined_heat_power": false, "grid_primary_voltage_kv": 7.2, "grid_primary_voltage_2_kv": null, "phases": null, "notes": null }, "geometry": { "type": "Point", "coordinates": [ -153.30389, 57.20278 ] } },
{ "type": "Feature", "properties": { "aea_plant_id": 92, "eia_plant_id": null, "name": "Pitkas Point", "pce_reporting_id": 331560, "aea_operator_id": 6, "eia_operator_id": 221, "grid_id": 75, "service_area_geom_id": null, "combined_heat_power": false, "grid_primary_voltage_kv": 7.2, "grid_primary_voltage_2_kv": null, "phases": null, "notes": null }, "geometry": null },
{ "type": "Feature", "properties": { "aea_plant_id": 93, "eia_plant_id": 7049, "name": "Russian Mission", "pce_reporting_id": 331580, "aea_operator_id": 6, "eia_operator_id": 221, "grid_id": 72, "service_area_geom_id": "169_14", "combined_heat_power": true, "grid_primary_voltage_kv": 7.2, "grid_primary_voltage_2_kv": null, "phases": null, "notes": null }, "geometry": { "type": "Point", "coordinates": [ -161.32028, 61.785 ] } },
{ "type": "Feature", "properties": { "aea_plant_id": 94, "eia_plant_id": 6343, "name": "Shageluk", "pce_reporting_id": 331620, "aea_operator_id": 6, "eia_operator_id": 221, "grid_id": 79, "service_area_geom_id": "169_22", "combined_heat_power": false, "grid_primary_voltage_kv": 7.2, "grid_primary_voltage_2_kv": null, "phases": null, "notes": null }, "geometry": { "type": "Point", "coordinates": [ -159.56194, 62.68222 ] } },
{ "type": "Feature", "properties": { "aea_plant_id": 95, "eia_plant_id": 6344, "name": "Shaktoolik", "pce_reporting_id": 331630, "aea_operator_id": 6, "eia_operator_id": 221, "grid_id": 80, "service_area_geom_id": "169_29", "combined_heat_power": true, "grid_primary_voltage_kv": 7.2, "grid_primary_voltage_2_kv": null, "phases": null, "notes": null }, "geometry": { "type": "Point", "coordinates": [ -161.15389, 64.33389 ] } },
{ "type": "Feature", "properties": { "aea_plant_id": 96, "eia_plant_id": null, "name": "Teller", "pce_reporting_id": 331685, "aea_operator_id": 6, "eia_operator_id": 221, "grid_id": 85, "service_area_geom_id": "169_45", "combined_heat_power": false, "grid_primary_voltage_kv": 7.2, "grid_primary_voltage_2_kv": null, "phases": null, "notes": null }, "geometry": { "type": "Point", "coordinates": [ -166.36083, 65.26361 ] } },
{ "type": "Feature", "properties": { "aea_plant_id": 96, "eia_plant_id": null, "name": "Teller", "pce_reporting_id": 332620, "aea_operator_id": 6, "eia_operator_id": 221, "grid_id": 85, "service_area_geom_id": "169_45", "combined_heat_power": false, "grid_primary_voltage_kv": 7.2, "grid_primary_voltage_2_kv": null, "phases": null, "notes": null }, "geometry": { "type": "Point", "coordinates": [ -166.36083, 65.26361 ] } },
{ "type": "Feature", "properties": { "aea_plant_id": 97, "eia_plant_id": 6350, "name": "Tununak", "pce_reporting_id": 331710, "aea_operator_id": 6, "eia_operator_id": 221, "grid_id": 88, "service_area_geom_id": "169_9", "combined_heat_power": false, "grid_primary_voltage_kv": 7.2, "grid_primary_voltage_2_kv": null, "phases": null, "notes": null }, "geometry": { "type": "Point", "coordinates": [ -165.25549, 60.58513 ] } },
{ "type": "Feature", "properties": { "aea_plant_id": 98, "eia_plant_id": 6351, "name": "Wales", "pce_reporting_id": 331730, "aea_operator_id": 6, "eia_operator_id": 221, "grid_id": 90, "service_area_geom_id": "169_35", "combined_heat_power": false, "grid_primary_voltage_kv": 7.2, "grid_primary_voltage_2_kv": null, "phases": null, "notes": null }, "geometry": { "type": "Point", "coordinates": [ -168.0875, 65.60917 ] } },
{ "type": "Feature", "properties": { "aea_plant_id": 99, "eia_plant_id": 6321, "name": "Lower Kalskag", "pce_reporting_id": 331430, "aea_operator_id": 6, "eia_operator_id": 221, "grid_id": 52, "service_area_geom_id": null, "combined_heat_power": false, "grid_primary_voltage_kv": null, "grid_primary_voltage_2_kv": null, "phases": null, "notes": null }, "geometry": null },
{ "type": "Feature", "properties": { "aea_plant_id": 100, "eia_plant_id": null, "name": "Karluk", "pce_reporting_id": 331740, "aea_operator_id": 7, "eia_operator_id": null, "grid_id": 92, "service_area_geom_id": "683_1", "combined_heat_power": false, "grid_primary_voltage_kv": null, "grid_primary_voltage_2_kv": null, "phases": null, "notes": null }, "geometry": { "type": "Point", "coordinates": [ -154.45433, 57.57021 ] } },
{ "type": "Feature", "properties": { "aea_plant_id": 101, "eia_plant_id": 75, "name": "Anchorage 1", "pce_reporting_id": null, "aea_operator_id": 109, "eia_operator_id": 599, "grid_id": 215, "service_area_geom_id": "8_1", "combined_heat_power": false, "grid_primary_voltage_kv": 115.0, "grid_primary_voltage_2_kv": null, "phases": null, "notes": null }, "geometry": { "type": "Point", "coordinates": [ -149.8661, 61.2221 ] } },
{ "type": "Feature", "properties": { "aea_plant_id": 102, "eia_plant_id": 77, "name": "Eklutna Hydro Project", "pce_reporting_id": null, "aea_operator_id": 109, "eia_operator_id": 599, "grid_id": 215, "service_area_geom_id": "18_1", "combined_heat_power": false, "grid_primary_voltage_kv": 115.0, "grid_primary_voltage_2_kv": null, "phases": null, "notes": null }, "geometry": { "type": "Point", "coordinates": [ -149.15009, 61.475211 ] } },
{ "type": "Feature", "properties": { "aea_plant_id": 103, "eia_plant_id": 6559, "name": "George M Sullivan Generation Plant 2", "pce_reporting_id": null, "aea_operator_id": 109, "eia_operator_id": 599, "grid_id": 215, "service_area_geom_id": "8_1", "combined_heat_power": false, "grid_primary_voltage_kv": 115.0, "grid_primary_voltage_2_kv": null, "phases": null, "notes": null }, "geometry": { "type": "Point", "coordinates": [ -149.716744, 61.229713 ] } },
{ "type": "Feature", "properties": { "aea_plant_id": 104, "eia_plant_id": null, "name": "AWWU Conduit", "pce_reporting_id": null, "aea_operator_id": 109, "eia_operator_id": 599, "grid_id": 215, "service_area_geom_id": null, "combined_heat_power": false, "grid_primary_voltage_kv": 115.0, "grid_primary_voltage_2_kv": null, "phases": null, "notes": null }, "geometry": null },
{ "type": "Feature", "properties": { "aea_plant_id": 105, "eia_plant_id": 7182, "name": "Aniak", "pce_reporting_id": 331760, "aea_operator_id": 9, "eia_operator_id": 4959, "grid_id": 93, "service_area_geom_id": "5_1", "combined_heat_power": false, "grid_primary_voltage_kv": 2.4, "grid_primary_voltage_2_kv": null, "phases": null, "notes": null }, "geometry": { "type": "Point", "coordinates": [ -159.535643, 61.580678 ] } },
{ "type": "Feature", "properties": { "aea_plant_id": 106, "eia_plant_id": null, "name": "Arctic Village", "pce_reporting_id": 331770, "aea_operator_id": 10, "eia_operator_id": null, "grid_id": 94, "service_area_geom_id": null, "combined_heat_power": true, "grid_primary_voltage_kv": 7.2, "grid_primary_voltage_2_kv": null, "phases": null, "notes": null }, "geometry": null },
{ "type": "Feature", "properties": { "aea_plant_id": 107, "eia_plant_id": null, "name": "Atka", "pce_reporting_id": 331750, "aea_operator_id": 11, "eia_operator_id": null, "grid_id": 95, "service_area_geom_id": "291_1", "combined_heat_power": true, "grid_primary_voltage_kv": 7.2, "grid_primary_voltage_2_kv": null, "phases": null, "notes": null }, "geometry": { "type": "Point", "coordinates": [ -174.20056, 52.19611 ] } },
{ "type": "Feature", "properties": { "aea_plant_id": 108, "eia_plant_id": null, "name": "Atmautluak", "pce_reporting_id": 331780, "aea_operator_id": 12, "eia_operator_id": null, "grid_id": 96, "service_area_geom_id": "337_1", "combined_heat_power": true, "grid_primary_voltage_kv": 7.2, "grid_primary_voltage_2_kv": null, "phases": null, "notes": null }, "geometry": { "type": "Point", "coordinates": [ -162.27306, 60.86694 ] } },
{ "type": "Feature", "properties": { "aea_plant_id": 109, "eia_plant_id": 79, "name": "Aurora Energy LLC", "pce_reporting_id": null, "aea_operator_id": 114, "eia_operator_id": 986, "grid_id": 215, "service_area_geom_id": "13_1", "combined_heat_power": true, "grid_primary_voltage_kv": 12.5, "grid_primary_voltage_2_kv": null, "phases": null, "notes": null }, "geometry": { "type": "Point", "coordinates": [ -147.735063, 64.847743 ] } },
{ "type": "Feature", "properties": { "aea_plant_id": 110, "eia_plant_id": 7173, "name": "Barrow", "pce_reporting_id": null, "aea_operator_id": 134, "eia_operator_id": 1276, "grid_id": 221, "service_area_geom_id": "214_1", "combined_heat_power": false, "grid_primary_voltage_kv": 4.16, "grid_primary_voltage_2_kv": null, "phases": null, "notes": null }, "geometry": { "type": "Point", "coordinates": [ -156.7786, 71.292 ] } },
{ "type": "Feature", "properties": { "aea_plant_id": 111, "eia_plant_id": null, "name": "Beaver", "pce_reporting_id": 331790, "aea_operator_id": 13, "eia_operator_id": null, "grid_id": 97, "service_area_geom_id": "420_1", "combined_heat_power": true, "grid_primary_voltage_kv": 7.2, "grid_primary_voltage_2_kv": null, "phases": null, "notes": null }, "geometry": { "type": "Point", "coordinates": [ -147.39639, 66.35944 ] } },
{ "type": "Feature", "properties": { "aea_plant_id": 112, "eia_plant_id": null, "name": "Birch Creek", "pce_reporting_id": 331810, "aea_operator_id": 15, "eia_operator_id": null, "grid_id": 98, "service_area_geom_id": "767_1", "combined_heat_power": false, "grid_primary_voltage_kv": 7.2, "grid_primary_voltage_2_kv": null, "phases": null, "notes": null }, "geometry": { "type": "Point", "coordinates": [ -145.84967, 66.25619 ] } },
{ "type": "Feature", "properties": { "aea_plant_id": 113, "eia_plant_id": null, "name": "Buckland", "pce_reporting_id": 331820, "aea_operator_id": 16, "eia_operator_id": null, "grid_id": 99, "service_area_geom_id": "432_1", "combined_heat_power": true, "grid_primary_voltage_kv": 7.2, "grid_primary_voltage_2_kv": null, "phases": null, "notes": null }, "geometry": { "type": "Point", "coordinates": [ -161.12306, 65.97972 ] } },
{ "type": "Feature", "properties": { "aea_plant_id": 114, "eia_plant_id": null, "name": "Chalkyitsik", "pce_reporting_id": 331840, "aea_operator_id": 19, "eia_operator_id": null, "grid_id": 100, "service_area_geom_id": "682_1", "combined_heat_power": true, "grid_primary_voltage_kv": 7.2, "grid_primary_voltage_2_kv": null, "phases": null, "notes": null }, "geometry": { "type": "Point", "coordinates": [ -143.72222, 66.65444 ] } },
{ "type": "Feature", "properties": { "aea_plant_id": 115, "eia_plant_id": null, "name": "Chenega Bay", "pce_reporting_id": 331850, "aea_operator_id": 20, "eia_operator_id": null, "grid_id": 101, "service_area_geom_id": "686_1", "combined_heat_power": true, "grid_primary_voltage_kv": 7.2, "grid_primary_voltage_2_kv": null, "phases": null, "notes": null }, "geometry": { "type": "Point", "coordinates": [ -148.01038, 60.06571 ] } },
{ "type": "Feature", "properties": { "aea_plant_id": 116, "eia_plant_id": null, "name": "Chignik Lagoon", "pce_reporting_id": 331870, "aea_operator_id": 23, "eia_operator_id": null, "grid_id": 102, "service_area_geom_id": "658_1", "combined_heat_power": true, "grid_primary_voltage_kv": 7.2, "grid_primary_voltage_2_kv": null, "phases": null, "notes": null }, "geometry": { "type": "Point", "coordinates": [ -158.53142, 56.30995 ] } },
{ "type": "Feature", "properties": { "aea_plant_id": 117, "eia_plant_id": null, "name": "Chignik Lake", "pce_reporting_id": 331880, "aea_operator_id": 22, "eia_operator_id": null, "grid_id": 103, "service_area_geom_id": null, "combined_heat_power": true, "grid_primary_voltage_kv": 7.2, "grid_primary_voltage_2_kv": null, "phases": null, "notes": null }, "geometry": null },
{ "type": "Feature", "properties": { "aea_plant_id": 118, "eia_plant_id": null, "name": "Chignik Bay", "pce_reporting_id": 331860, "aea_operator_id": 21, "eia_operator_id": null, "grid_id": 104, "service_area_geom_id": null, "combined_heat_power": true, "grid_primary_voltage_kv": 7.2, "grid_primary_voltage_2_kv": null, "phases": null, "notes": null }, "geometry": null },
{ "type": "Feature", "properties": { "aea_plant_id": 119, "eia_plant_id": null, "name": "Chitina", "pce_reporting_id": 331890, "aea_operator_id": 24, "eia_operator_id": null, "grid_id": 105, "service_area_geom_id": "368_1", "combined_heat_power": true, "grid_primary_voltage_kv": 7.2, "grid_primary_voltage_2_kv": null, "phases": null, "notes": null }, "geometry": { "type": "Point", "coordinates": [ -144.43694, 61.51583 ] } },
{ "type": "Feature", "properties": { "aea_plant_id": 120, "eia_plant_id": 96, "name": "Beluga", "pce_reporting_id": null, "aea_operator_id": 132, "eia_operator_id": 3522, "grid_id": 215, "service_area_geom_id": "8_1", "combined_heat_power": false, "grid_primary_voltage_kv": 138.0, "grid_primary_voltage_2_kv": null, "phases": null, "notes": null }, "geometry": { "type": "Point", "coordinates": [ -151.0356, 61.1861 ] } },
{ "type": "Feature", "properties": { "aea_plant_id": 121, "eia_plant_id": 6291, "name": "Cooper Lake", "pce_reporting_id": null, "aea_operator_id": 132, "eia_operator_id": 3522, "grid_id": 215, "service_area_geom_id": "8_1", "combined_heat_power": false, "grid_primary_voltage_kv": 69.0, "grid_primary_voltage_2_kv": null, "phases": null, "notes": null }, "geometry": { "type": "Point", "coordinates": [ -149.665603, 60.392331 ] } },
{ "type": "Feature", "properties": { "aea_plant_id": 122, "eia_plant_id": 6293, "name": "International", "pce_reporting_id": null, "aea_operator_id": 132, "eia_operator_id": 3522, "grid_id": 215, "service_area_geom_id": "8_1", "combined_heat_power": false, "grid_primary_voltage_kv": 138.0, "grid_primary_voltage_2_kv": null, "phases": null, "notes": null }, "geometry": { "type": "Point", "coordinates": [ -149.911038, 61.168972 ] } },
{ "type": "Feature", "properties": { "aea_plant_id": 123, "eia_plant_id": 57036, "name": "Southcentral Power Project", "pce_reporting_id": null, "aea_operator_id": 132, "eia_operator_id": 3522, "grid_id": 215, "service_area_geom_id": "8_1", "combined_heat_power": false, "grid_primary_voltage_kv": 138.0, "grid_primary_voltage_2_kv": null, "phases": null, "notes": null }, "geometry": { "type": "Point", "coordinates": [ -149.905304, 61.167417 ] } },
{ "type": "Feature", "properties": { "aea_plant_id": 124, "eia_plant_id": null, "name": "Circle", "pce_reporting_id": 331900, "aea_operator_id": 25, "eia_operator_id": null, "grid_id": 106, "service_area_geom_id": "256_1", "combined_heat_power": false, "grid_primary_voltage_kv": 2.4, "grid_primary_voltage_2_kv": null, "phases": null, "notes": null }, "geometry": { "type": "Point", "coordinates": [ -144.06056, 65.82556 ] } },
{ "type": "Feature", "properties": { "aea_plant_id": 125, "eia_plant_id": null, "name": "Clark's Point", "pce_reporting_id": 331910, "aea_operator_id": 26, "eia_operator_id": null, "grid_id": 107, "service_area_geom_id": null, "combined_heat_power": true, "grid_primary_voltage_kv": 7.2, "grid_primary_voltage_2_kv": null, "phases": null, "notes": null }, "geometry": null },
{ "type": "Feature", "properties": { "aea_plant_id": 126, "eia_plant_id": 58982, "name": "Allison Creek Hydro", "pce_reporting_id": null, "aea_operator_id": 103, "eia_operator_id": 4329, "grid_id": 216, "service_area_geom_id": "10_1", "combined_heat_power": false, "grid_primary_voltage_kv": 14.4, "grid_primary_voltage_2_kv": 138.0, "phases": null, "notes": null }, "geometry": { "type": "Point", "coordinates": [ -146.353333, 61.084444 ] } },
{ "type": "Feature", "properties": { "aea_plant_id": 127, "eia_plant_id": 6305, "name": "Glennallen", "pce_reporting_id": null, "aea_operator_id": 103, "eia_operator_id": 4329, "grid_id": 216, "service_area_geom_id": "10_1", "combined_heat_power": false, "grid_primary_voltage_kv": 138.0, "grid_primary_voltage_2_kv": 14.4, "phases": null, "notes": null }, "geometry": { "type": "Point", "coordinates": [ -145.532529, 62.110415 ] } },
{ "type": "Feature", "properties": { "aea_plant_id": 128, "eia_plant_id": 390, "name": "Solomon Gulch", "pce_reporting_id": null, "aea_operator_id": 103, "eia_operator_id": 4329, "grid_id": 216, "service_area_geom_id": "10_1", "combined_heat_power": false, "grid_primary_voltage_kv": 14.4, "grid_primary_voltage_2_kv": 138.0, "phases": null, "notes": null }, "geometry": { "type": "Point", "coordinates": [ -146.3033, 61.0828 ] } },
{ "type": "Feature", "properties": { "aea_plant_id": 129, "eia_plant_id": 6306, "name": "Valdez", "pce_reporting_id": null, "aea_operator_id": 103, "eia_operator_id": 4329, "grid_id": 216, "service_area_geom_id": "10_1", "combined_heat_power": false, "grid_primary_voltage_kv": 138.0, "grid_primary_voltage_2_kv": 14.4, "phases": null, "notes": null }, "geometry": { "type": "Point", "coordinates": [ -146.3647, 61.1303 ] } },
{ "type": "Feature", "properties": { "aea_plant_id": 130, "eia_plant_id": 7841, "name": "Valdez Cogen", "pce_reporting_id": null, "aea_operator_id": 103, "eia_operator_id": 4329, "grid_id": 216, "service_area_geom_id": "10_1", "combined_heat_power": true, "grid_primary_voltage_kv": 14.4, "grid_primary_voltage_2_kv": 138.0, "phases": null, "notes": null }, "geometry": { "type": "Point", "coordinates": [ -146.2529, 61.0839 ] } },
{ "type": "Feature", "properties": { "aea_plant_id": 131, "eia_plant_id": 62714, "name": "Eyak Service Center BESS", "pce_reporting_id": null, "aea_operator_id": 27, "eia_operator_id": 40215, "grid_id": 14, "service_area_geom_id": "160_1", "combined_heat_power": false, "grid_primary_voltage_kv": null, "grid_primary_voltage_2_kv": null, "phases": null, "notes": null }, "geometry": { "type": "Point", "coordinates": [ -145.74079, 60.54047 ] } },
{ "type": "Feature", "properties": { "aea_plant_id": 132, "eia_plant_id": 7042, "name": "Humpback Creek", "pce_reporting_id": null, "aea_operator_id": 27, "eia_operator_id": 40215, "grid_id": 14, "service_area_geom_id": "160_1", "combined_heat_power": false, "grid_primary_voltage_kv": 13.0, "grid_primary_voltage_2_kv": null, "phases": null, "notes": null }, "geometry": { "type": "Point", "coordinates": [ -145.679411, 60.612822 ] } },
{ "type": "Feature", "properties": { "aea_plant_id": 133, "eia_plant_id": 789, "name": "Orca", "pce_reporting_id": null, "aea_operator_id": 27, "eia_operator_id": 40215, "grid_id": 14, "service_area_geom_id": "160_1", "combined_heat_power": false, "grid_primary_voltage_kv": 13.0, "grid_primary_voltage_2_kv": null, "phases": null, "notes": null }, "geometry": { "type": "Point", "coordinates": [ -145.752983, 60.555889 ] } },
{ "type": "Feature", "properties": { "aea_plant_id": 134, "eia_plant_id": 7862, "name": "Power Creek", "pce_reporting_id": null, "aea_operator_id": 27, "eia_operator_id": 40215, "grid_id": 14, "service_area_geom_id": "160_1", "combined_heat_power": false, "grid_primary_voltage_kv": 13.0, "grid_primary_voltage_2_kv": null, "phases": null, "notes": null }, "geometry": { "type": "Point", "coordinates": [ -145.604539, 60.588686 ] } },
{ "type": "Feature", "properties": { "aea_plant_id": 135, "eia_plant_id": null, "name": "Diomede", "pce_reporting_id": 331930, "aea_operator_id": 28, "eia_operator_id": null, "grid_id": 110, "service_area_geom_id": "383_1", "combined_heat_power": false, "grid_primary_voltage_kv": null, "grid_primary_voltage_2_kv": null, "phases": null, "notes": null }, "geometry": { "type": "Point", "coordinates": [ -168.953056, 65.758611 ] } },
{ "type": "Feature", "properties": { "aea_plant_id": 136, "eia_plant_id": 54834, "name": "Fort Greely Power Plant", "pce_reporting_id": null, "aea_operator_id": 116, "eia_operator_id": 19272, "grid_id": 215, "service_area_geom_id": "720_1", "combined_heat_power": false, "grid_primary_voltage_kv": 14.4, "grid_primary_voltage_2_kv": null, "phases": null, "notes": null }, "geometry": { "type": "Point", "coordinates": [ -145.716581, 63.973572 ] } },
{ "type": "Feature", "properties": { "aea_plant_id": 137, "eia_plant_id": 50308, "name": "Utility Plants Section", "pce_reporting_id": null, "aea_operator_id": 118, "eia_operator_id": 56389, "grid_id": 215, "service_area_geom_id": "726_1", "combined_heat_power": true, "grid_primary_voltage_kv": 138.0, "grid_primary_voltage_2_kv": null, "phases": null, "notes": null }, "geometry": { "type": "Point", "coordinates": [ -147.648627, 64.825601 ] } },
{ "type": "Feature", "properties": { "aea_plant_id": 138, "eia_plant_id": 58380, "name": "JBER Landfill Gas Power Plant", "pce_reporting_id": null, "aea_operator_id": 122, "eia_operator_id": 58368, "grid_id": 215, "service_area_geom_id": "18_1", "combined_heat_power": false, "grid_primary_voltage_kv": 34.5, "grid_primary_voltage_2_kv": null, "phases": null, "notes": null }, "geometry": { "type": "Point", "coordinates": [ -149.61, 61.286 ] } },
{ "type": "Feature", "properties": { "aea_plant_id": 139, "eia_plant_id": 7180, "name": "Egegik", "pce_reporting_id": 331940, "aea_operator_id": 29, "eia_operator_id": 5553, "grid_id": 111, "service_area_geom_id": "320_1", "combined_heat_power": true, "grid_primary_voltage_kv": 7.2, "grid_primary_voltage_2_kv": null, "phases": null, "notes": null }, "geometry": { "type": "Point", "coordinates": [ -157.37583, 58.21556 ] } },
{ "type": "Feature", "properties": { "aea_plant_id": 140, "eia_plant_id": null, "name": "Elfin Cove", "pce_reporting_id": 331960, "aea_operator_id": 31, "eia_operator_id": null, "grid_id": 112, "service_area_geom_id": "701_1", "combined_heat_power": true, "grid_primary_voltage_kv": 2.4, "grid_primary_voltage_2_kv": null, "phases": null, "notes": null }, "geometry": { "type": "Point", "coordinates": [ -136.34333, 58.19444 ] } },
{ "type": "Feature", "properties": { "aea_plant_id": 141, "eia_plant_id": null, "name": "False Pass", "pce_reporting_id": 331970, "aea_operator_id": 32, "eia_operator_id": null, "grid_id": 113, "service_area_geom_id": "442_1", "combined_heat_power": true, "grid_primary_voltage_kv": 7.2, "grid_primary_voltage_2_kv": null, "phases": null, "notes": null }, "geometry": { "type": "Point", "coordinates": [ -163.40883, 54.85394 ] } },
{ "type": "Feature", "properties": { "aea_plant_id": 142, "eia_plant_id": 58425, "name": "Fire Island Wind", "pce_reporting_id": null, "aea_operator_id": 115, "eia_operator_id": 58422, "grid_id": 215, "service_area_geom_id": "8_1", "combined_heat_power": false, "grid_primary_voltage_kv": 34.5, "grid_primary_voltage_2_kv": null, "phases": null, "notes": null }, "geometry": { "type": "Point", "coordinates": [ -150.243611, 61.13 ] } },
{ "type": "Feature", "properties": { "aea_plant_id": 143, "eia_plant_id": null, "name": "Cold Bay", "pce_reporting_id": 331980, "aea_operator_id": 34, "eia_operator_id": null, "grid_id": 114, "service_area_geom_id": "88_1", "combined_heat_power": false, "grid_primary_voltage_kv": 7.2, "grid_primary_voltage_2_kv": null, "phases": null, "notes": null }, "geometry": { "type": "Point", "coordinates": [ -162.72111, 55.18583 ] } },
{ "type": "Feature", "properties": { "aea_plant_id": 144, "eia_plant_id": 7437, "name": "Galena Electric Utility", "pce_reporting_id": 331990, "aea_operator_id": 33, "eia_operator_id": 6915, "grid_id": 115, "service_area_geom_id": "274_1", "combined_heat_power": false, "grid_primary_voltage_kv": 4.16, "grid_primary_voltage_2_kv": null, "phases": null, "notes": null }, "geometry": { "type": "Point", "coordinates": [ -156.8736, 64.74417 ] } },
{ "type": "Feature", "properties": { "aea_plant_id": 145, "eia_plant_id": null, "name": "Central", "pce_reporting_id": 331830, "aea_operator_id": 139, "eia_operator_id": null, "grid_id": 116, "service_area_geom_id": "341_1", "combined_heat_power": true, "grid_primary_voltage_kv": 7.2, "grid_primary_voltage_2_kv": null, "phases": null, "notes": null }, "geometry": { "type": "Point", "coordinates": [ -144.80306, 65.5725 ] } },
{ "type": "Feature", "properties": { "aea_plant_id": 146, "eia_plant_id": 57583, "name": "Battery Energy Storage System", "pce_reporting_id": null, "aea_operator_id": 104, "eia_operator_id": 7353, "grid_id": 215, "service_area_geom_id": "13_1", "combined_heat_power": false, "grid_primary_voltage_kv": 138.0, "grid_primary_voltage_2_kv": null, "phases": null, "notes": null }, "geometry": { "type": "Point", "coordinates": [ -147.725, 64.8167 ] } },
{ "type": "Feature", "properties": { "aea_plant_id": 147, "eia_plant_id": 56325, "name": "Delta Power", "pce_reporting_id": null, "aea_operator_id": 104, "eia_operator_id": 7353, "grid_id": 215, "service_area_geom_id": "13_1", "combined_heat_power": false, "grid_primary_voltage_kv": 138.0, "grid_primary_voltage_2_kv": null, "phases": null, "notes": null }, "geometry": { "type": "Point", "coordinates": [ -145.719444, 64.028056 ] } },
{ "type": "Feature", "properties": { "aea_plant_id": 148, "eia_plant_id": 57935, "name": "Eva Creek Wind", "pce_reporting_id": null, "aea_operator_id": 104, "eia_operator_id": 7353, "grid_id": 215, "service_area_geom_id": "13_1", "combined_heat_power": false, "grid_primary_voltage_kv": 138.0, "grid_primary_voltage_2_kv": null, "phases": null, "notes": null }, "geometry": { "type": "Point", "coordinates": [ -148.9, 64.058333 ] } },
{ "type": "Feature", "properties": { "aea_plant_id": 149, "eia_plant_id": 6286, "name": "Fairbanks", "pce_reporting_id": null, "aea_operator_id": 104, "eia_operator_id": 7353, "grid_id": 215, "service_area_geom_id": "13_1", "combined_heat_power": false, "grid_primary_voltage_kv": 69.0, "grid_primary_voltage_2_kv": null, "phases": null, "notes": null }, "geometry": { "type": "Point", "coordinates": [ -147.719351, 64.854171 ] } },
{ "type": "Feature", "properties": { "aea_plant_id": 150, "eia_plant_id": 6288, "name": "Healy", "pce_reporting_id": null, "aea_operator_id": 104, "eia_operator_id": 7353, "grid_id": 215, "service_area_geom_id": "13_1", "combined_heat_power": false, "grid_primary_voltage_kv": 138.0, "grid_primary_voltage_2_kv": null, "phases": null, "notes": null }, "geometry": { "type": "Point", "coordinates": [ -148.95, 63.8542 ] } },
{ "type": "Feature", "properties": { "aea_plant_id": 151, "eia_plant_id": 6285, "name": "North Pole", "pce_reporting_id": null, "aea_operator_id": 104, "eia_operator_id": 7353, "grid_id": 215, "service_area_geom_id": "13_1", "combined_heat_power": false, "grid_primary_voltage_kv": 138.0, "grid_primary_voltage_2_kv": null, "phases": null, "notes": null }, "geometry": { "type": "Point", "coordinates": [ -147.3481, 64.7356 ] } },
{ "type": "Feature", "properties": { "aea_plant_id": 152, "eia_plant_id": null, "name": "GVEA Solar Farm", "pce_reporting_id": null, "aea_operator_id": 104, "eia_operator_id": 7353, "grid_id": 215, "service_area_geom_id": null, "combined_heat_power": false, "grid_primary_voltage_kv": null, "grid_primary_voltage_2_kv": null, "phases": null, "notes": null }, "geometry": null },
{ "type": "Feature", "properties": { "aea_plant_id": 153, "eia_plant_id": null, "name": "Golovin", "pce_reporting_id": 332000, "aea_operator_id": 35, "eia_operator_id": null, "grid_id": 117, "service_area_geom_id": "373_1", "combined_heat_power": true, "grid_primary_voltage_kv": 7.2, "grid_primary_voltage_2_kv": null, "phases": null, "notes": null }, "geometry": { "type": "Point", "coordinates": [ -163.02917, 64.54333 ] } },
{ "type": "Feature", "properties": { "aea_plant_id": 154, "eia_plant_id": 7174, "name": "Gwitchyaa Zhee", "pce_reporting_id": 332020, "aea_operator_id": 37, "eia_operator_id": 7833, "grid_id": 119, "service_area_geom_id": "63_1", "combined_heat_power": true, "grid_primary_voltage_kv": 4.16, "grid_primary_voltage_2_kv": null, "phases": null, "notes": null }, "geometry": { "type": "Point", "coordinates": [ -145.253052, 66.566287 ] } },
{ "type": "Feature", "properties": { "aea_plant_id": 155, "eia_plant_id": 6292, "name": "Bernice Lake", "pce_reporting_id": null, "aea_operator_id": 105, "eia_operator_id": 19558, "grid_id": 215, "service_area_geom_id": "32_1", "combined_heat_power": false, "grid_primary_voltage_kv": 69.0, "grid_primary_voltage_2_kv": 115.0, "phases": null, "notes": null }, "geometry": { "type": "Point", "coordinates": [ -151.3874, 60.6935 ] } },
{ "type": "Feature", "properties": { "aea_plant_id": 156, "eia_plant_id": 7367, "name": "Bradley Lake", "pce_reporting_id": null, "aea_operator_id": 105, "eia_operator_id": 19558, "grid_id": 215, "service_area_geom_id": "32_1", "combined_heat_power": false, "grid_primary_voltage_kv": 115.0, "grid_primary_voltage_2_kv": null, "phases": null, "notes": null }, "geometry": { "type": "Point", "coordinates": [ -150.94015, 59.77862 ] } },
{ "type": "Feature", "properties": { "aea_plant_id": 157, "eia_plant_id": 55966, "name": "Nikiski Co-Generation", "pce_reporting_id": null, "aea_operator_id": 105, "eia_operator_id": 19558, "grid_id": 215, "service_area_geom_id": "32_1", "combined_heat_power": false, "grid_primary_voltage_kv": 115.0, "grid_primary_voltage_2_kv": null, "phases": null, "notes": null }, "geometry": { "type": "Point", "coordinates": [ -151.377713, 60.676539 ] } },
{ "type": "Feature", "properties": { "aea_plant_id": 158, "eia_plant_id": 6283, "name": "Seldovia", "pce_reporting_id": null, "aea_operator_id": 105, "eia_operator_id": 19558, "grid_id": 215, "service_area_geom_id": "32_1", "combined_heat_power": false, "grid_primary_voltage_kv": 12.4, "grid_primary_voltage_2_kv": null, "phases": null, "notes": null }, "geometry": { "type": "Point", "coordinates": [ -151.713439, 59.439542 ] } },
{ "type": "Feature", "properties": { "aea_plant_id": 159, "eia_plant_id": 57206, "name": "Soldotna", "pce_reporting_id": null, "aea_operator_id": 105, "eia_operator_id": 19558, "grid_id": 215, "service_area_geom_id": "32_1", "combined_heat_power": false, "grid_primary_voltage_kv": 115.0, "grid_primary_voltage_2_kv": null, "phases": null, "notes": null }, "geometry": { "type": "Point", "coordinates": [ -150.997222, 60.499444 ] } },
{ "type": "Feature", "properties": { "aea_plant_id": 159, "eia_plant_id": 4252, "name": "Soldotna", "pce_reporting_id": null, "aea_operator_id": 170, "eia_operator_id": 288, "grid_id": 215, "service_area_geom_id": "32_1", "combined_heat_power": false, "grid_primary_voltage_kv": 115.0, "grid_primary_voltage_2_kv": null, "phases": null, "notes": null }, "geometry": { "type": "Point", "coordinates": [ -150.997222, 60.499444 ] } },
{ "type": "Feature", "properties": { "aea_plant_id": 160, "eia_plant_id": null, "name": "Hughes", "pce_reporting_id": 332030, "aea_operator_id": 38, "eia_operator_id": null, "grid_id": 120, "service_area_geom_id": "332_1", "combined_heat_power": true, "grid_primary_voltage_kv": 7.2, "grid_primary_voltage_2_kv": null, "phases": null, "notes": null }, "geometry": { "type": "Point", "coordinates": [ -154.25556, 66.04889 ] } },
{ "type": "Feature", "properties": { "aea_plant_id": 161, "eia_plant_id": null, "name": "Igiugig", "pce_reporting_id": 332040, "aea_operator_id": 39, "eia_operator_id": null, "grid_id": 121, "service_area_geom_id": "681_1", "combined_heat_power": true, "grid_primary_voltage_kv": 7.2, "grid_primary_voltage_2_kv": null, "phases": null, "notes": null }, "geometry": { "type": "Point", "coordinates": [ -155.89472, 59.32778 ] } },
{ "type": "Feature", "properties": { "aea_plant_id": 162, "eia_plant_id": 7183, "name": "Newhalen", "pce_reporting_id": 332050, "aea_operator_id": 40, "eia_operator_id": 9188, "grid_id": 123, "service_area_geom_id": "280_1", "combined_heat_power": true, "grid_primary_voltage_kv": 2.5, "grid_primary_voltage_2_kv": null, "phases": null, "notes": null }, "geometry": { "type": "Point", "coordinates": [ -154.698735, 59.899054 ] } },
{ "type": "Feature", "properties": { "aea_plant_id": 163, "eia_plant_id": 7462, "name": "Angoon", "pce_reporting_id": 332650, "aea_operator_id": 41, "eia_operator_id": 18963, "grid_id": 125, "service_area_geom_id": "240_2", "combined_heat_power": true, "grid_primary_voltage_kv": 12.47, "grid_primary_voltage_2_kv": null, "phases": null, "notes": null }, "geometry": { "type": "Point", "coordinates": [ -134.58614, 57.499166 ] } },
{ "type": "Feature", "properties": { "aea_plant_id": 164, "eia_plant_id": 7463, "name": "Hoonah", "pce_reporting_id": 332670, "aea_operator_id": 41, "eia_operator_id": 18963, "grid_id": 128, "service_area_geom_id": "240_3", "combined_heat_power": true, "grid_primary_voltage_kv": 12.47, "grid_primary_voltage_2_kv": null, "phases": null, "notes": null }, "geometry": { "type": "Point", "coordinates": [ -135.43074, 58.106432 ] } },
{ "type": "Feature", "properties": { "aea_plant_id": 165, "eia_plant_id": 7464, "name": "Kake", "pce_reporting_id": 332680, "aea_operator_id": 41, "eia_operator_id": 18963, "grid_id": 129, "service_area_geom_id": "240_1", "combined_heat_power": false, "grid_primary_voltage_kv": 12.47, "grid_primary_voltage_2_kv": null, "phases": null, "notes": null }, "geometry": { "type": "Point", "coordinates": [ -133.922557, 56.962983 ] } },
{ "type": "Feature", "properties": { "aea_plant_id": 166, "eia_plant_id": 7467, "name": "Chilkat Valley", "pce_reporting_id": 332660, "aea_operator_id": 41, "eia_operator_id": 18963, "grid_id": 32, "service_area_geom_id": "240_4", "combined_heat_power": false, "grid_primary_voltage_kv": null, "grid_primary_voltage_2_kv": null, "phases": null, "notes": null }, "geometry": { "type": "Point", "coordinates": [ -135.7333, 59.3856 ] } },
{ "type": "Feature", "properties": { "aea_plant_id": 167, "eia_plant_id": null, "name": "Klukwan", "pce_reporting_id": 332700, "aea_operator_id": 41, "eia_operator_id": null, "grid_id": 32, "service_area_geom_id": null, "combined_heat_power": false, "grid_primary_voltage_kv": null, "grid_primary_voltage_2_kv": null, "phases": null, "notes": null }, "geometry": null },
{ "type": "Feature", "properties": { "aea_plant_id": 168, "eia_plant_id": null, "name": "10 Mile Creek", "pce_reporting_id": null, "aea_operator_id": 41, "eia_operator_id": 18963, "grid_id": 32, "service_area_geom_id": null, "combined_heat_power": false, "grid_primary_voltage_kv": null, "grid_primary_voltage_2_kv": null, "phases": null, "notes": null }, "geometry": null },
{ "type": "Feature", "properties": { "aea_plant_id": 169, "eia_plant_id": null, "name": "Deering", "pce_reporting_id": 332060, "aea_operator_id": 42, "eia_operator_id": null, "grid_id": 130, "service_area_geom_id": "369_1", "combined_heat_power": true, "grid_primary_voltage_kv": 7.2, "grid_primary_voltage_2_kv": null, "phases": null, "notes": null }, "geometry": { "type": "Point", "coordinates": [ -162.71274, 66.07497 ] } },
{ "type": "Feature", "properties": { "aea_plant_id": 170, "eia_plant_id": 59027, "name": "Mahoney Lake Hydroelectric", "pce_reporting_id": null, "aea_operator_id": 160, "eia_operator_id": 60223, "grid_id": 217, "service_area_geom_id": "103_1", "combined_heat_power": false, "grid_primary_voltage_kv": 34.5, "grid_primary_voltage_2_kv": null, "phases": null, "notes": null }, "geometry": { "type": "Point", "coordinates": [ -131.537778, 55.419444 ] } },
{ "type": "Feature", "properties": { "aea_plant_id": 171, "eia_plant_id": 6580, "name": "Beaver Falls", "pce_reporting_id": null, "aea_operator_id": 131, "eia_operator_id": 10210, "grid_id": 217, "service_area_geom_id": "103_1", "combined_heat_power": false, "grid_primary_voltage_kv": 34.5, "grid_primary_voltage_2_kv": null, "phases": null, "notes": null }, "geometry": { "type": "Point", "coordinates": [ -131.470269, 55.37975 ] } },
{ "type": "Feature", "properties": { "aea_plant_id": 172, "eia_plant_id": 84, "name": "Ketchikan", "pce_reporting_id": null, "aea_operator_id": 131, "eia_operator_id": 10210, "grid_id": 217, "service_area_geom_id": "103_1", "combined_heat_power": false, "grid_primary_voltage_kv": 34.5, "grid_primary_voltage_2_kv": null, "phases": null, "notes": null }, "geometry": { "type": "Point", "coordinates": [ -131.633425, 55.344641 ] } },
{ "type": "Feature", "properties": { "aea_plant_id": 173, "eia_plant_id": 85, "name": "S W Bailey", "pce_reporting_id": null, "aea_operator_id": 131, "eia_operator_id": 10210, "grid_id": 217, "service_area_geom_id": "103_1", "combined_heat_power": false, "grid_primary_voltage_kv": 34.5, "grid_primary_voltage_2_kv": null, "phases": null, "notes": null }, "geometry": { "type": "Point", "coordinates": [ -131.69696, 55.357397 ] } },
{ "type": "Feature", "properties": { "aea_plant_id": 174, "eia_plant_id": 6581, "name": "Silvis", "pce_reporting_id": null, "aea_operator_id": 131, "eia_operator_id": 10210, "grid_id": 217, "service_area_geom_id": "103_1", "combined_heat_power": false, "grid_primary_voltage_kv": 34.5, "grid_primary_voltage_2_kv": null, "phases": null, "notes": null }, "geometry": { "type": "Point", "coordinates": [ -131.517758, 55.381402 ] } },
{ "type": "Feature", "properties": { "aea_plant_id": 175, "eia_plant_id": 70, "name": "Swan Lake", "pce_reporting_id": null, "aea_operator_id": 131, "eia_operator_id": 10210, "grid_id": 217, "service_area_geom_id": "103_1", "combined_heat_power": false, "grid_primary_voltage_kv": 115.0, "grid_primary_voltage_2_kv": 115.0, "phases": null, "notes": null }, "geometry": { "type": "Point", "coordinates": [ -131.356111, 55.615208 ] } },
{ "type": "Feature", "properties": { "aea_plant_id": 176, "eia_plant_id": 58977, "name": "Whitman", "pce_reporting_id": null, "aea_operator_id": 131, "eia_operator_id": 10210, "grid_id": 217, "service_area_geom_id": "103_1", "combined_heat_power": false, "grid_primary_voltage_kv": 34.5, "grid_primary_voltage_2_kv": null, "phases": null, "notes": null }, "geometry": { "type": "Point", "coordinates": [ -131.530833, 55.328056 ] } },
{ "type": "Feature", "properties": { "aea_plant_id": 177, "eia_plant_id": 7493, "name": "King Cove", "pce_reporting_id": 332070, "aea_operator_id": 43, "eia_operator_id": 9897, "grid_id": 131, "service_area_geom_id": "289_1", "combined_heat_power": true, "grid_primary_voltage_kv": 480.0, "grid_primary_voltage_2_kv": null, "phases": null, "notes": null }, "geometry": { "type": "Point", "coordinates": [ -162.3103, 55.061683 ] } },
{ "type": "Feature", "properties": { "aea_plant_id": 178, "eia_plant_id": null, "name": "Kipnuk", "pce_reporting_id": 332080, "aea_operator_id": 44, "eia_operator_id": null, "grid_id": 132, "service_area_geom_id": "446_1", "combined_heat_power": null, "grid_primary_voltage_kv": null, "grid_primary_voltage_2_kv": null, "phases": null, "notes": null }, "geometry": { "type": "Point", "coordinates": [ -164.04139, 59.93889 ] } },
{ "type": "Feature", "properties": { "aea_plant_id": 179, "eia_plant_id": null, "name": "Kobuk", "pce_reporting_id": 332090, "aea_operator_id": 45, "eia_operator_id": null, "grid_id": 149, "service_area_geom_id": null, "combined_heat_power": false, "grid_primary_voltage_kv": 7.2, "grid_primary_voltage_2_kv": null, "phases": null, "notes": null }, "geometry": null },
{ "type": "Feature", "properties": { "aea_plant_id": 180, "eia_plant_id": 58405, "name": "ESS Battery Microgrid", "pce_reporting_id": null, "aea_operator_id": 106, "eia_operator_id": 10433, "grid_id": 223, "service_area_geom_id": "16_1", "combined_heat_power": false, "grid_primary_voltage_kv": 12.47, "grid_primary_voltage_2_kv": null, "phases": null, "notes": null }, "geometry": { "type": "Point", "coordinates": [ -152.404167, 57.799167 ] } },
{ "type": "Feature", "properties": { "aea_plant_id": 181, "eia_plant_id": 60563, "name": "Flywheel Energy Storage System Microgrid", "pce_reporting_id": null, "aea_operator_id": 106, "eia_operator_id": 10433, "grid_id": 223, "service_area_geom_id": "16_1", "combined_heat_power": false, "grid_primary_voltage_kv": 12.47, "grid_primary_voltage_2_kv": null, "phases": null, "notes": null }, "geometry": { "type": "Point", "coordinates": [ -152.443783, 57.780114 ] } },
{ "type": "Feature", "properties": { "aea_plant_id": 182, "eia_plant_id": 6281, "name": "Kodiak Microgrid", "pce_reporting_id": null, "aea_operator_id": 106, "eia_operator_id": 10433, "grid_id": 223, "service_area_geom_id": "16_1", "combined_heat_power": false, "grid_primary_voltage_kv": 67.0, "grid_primary_voltage_2_kv": null, "phases": null, "notes": null }, "geometry": { "type": "Point", "coordinates": [ -152.396982, 57.789956 ] } },
{ "type": "Feature", "properties": { "aea_plant_id": 183, "eia_plant_id": 7723, "name": "Nymans Plant Microgrid", "pce_reporting_id": null, "aea_operator_id": 106, "eia_operator_id": 10433, "grid_id": 223, "service_area_geom_id": "16_1", "combined_heat_power": false, "grid_primary_voltage_kv": 67.0, "grid_primary_voltage_2_kv": null, "phases": null, "notes": null }, "geometry": { "type": "Point", "coordinates": [ -152.507044, 57.731608 ] } },
{ "type": "Feature", "properties": { "aea_plant_id": 184, "eia_plant_id": 57187, "name": "Pillar Mountain Wind Project Microgrid", "pce_reporting_id": null, "aea_operator_id": 106, "eia_operator_id": 10433, "grid_id": 223, "service_area_geom_id": "16_1", "combined_heat_power": false, "grid_primary_voltage_kv": 69.0, "grid_primary_voltage_2_kv": null, "phases": null, "notes": null }, "geometry": { "type": "Point", "coordinates": [ -152.4406, 57.7869 ] } },
{ "type": "Feature", "properties": { "aea_plant_id": 185, "eia_plant_id": 6282, "name": "Port Lions Microgrid", "pce_reporting_id": null, "aea_operator_id": 106, "eia_operator_id": 10433, "grid_id": 223, "service_area_geom_id": "16_1", "combined_heat_power": false, "grid_primary_voltage_kv": 12.47, "grid_primary_voltage_2_kv": null, "phases": null, "notes": null }, "geometry": { "type": "Point", "coordinates": [ -152.855441, 57.864775 ] } },
{ "type": "Feature", "properties": { "aea_plant_id": 186, "eia_plant_id": 60250, "name": "Swampy Acres Microgrid", "pce_reporting_id": null, "aea_operator_id": 106, "eia_operator_id": 10433, "grid_id": 223, "service_area_geom_id": "16_1", "combined_heat_power": false, "grid_primary_voltage_kv": 12.47, "grid_primary_voltage_2_kv": null, "phases": null, "notes": null }, "geometry": { "type": "Point", "coordinates": [ -152.48028, 57.77556 ] } },
{ "type": "Feature", "properties": { "aea_plant_id": 187, "eia_plant_id": 71, "name": "Terror Lake Microgrid", "pce_reporting_id": null, "aea_operator_id": 106, "eia_operator_id": 10433, "grid_id": 223, "service_area_geom_id": "16_1", "combined_heat_power": false, "grid_primary_voltage_kv": 138.0, "grid_primary_voltage_2_kv": null, "phases": null, "notes": null }, "geometry": { "type": "Point", "coordinates": [ -152.895, 57.6861 ] } },
{ "type": "Feature", "properties": { "aea_plant_id": 188, "eia_plant_id": null, "name": "Kokhanok", "pce_reporting_id": 332100, "aea_operator_id": 46, "eia_operator_id": null, "grid_id": 134, "service_area_geom_id": "660_1", "combined_heat_power": true, "grid_primary_voltage_kv": 7.2, "grid_primary_voltage_2_kv": null, "phases": null, "notes": null }, "geometry": { "type": "Point", "coordinates": [ -154.75514, 59.4416 ] } },
{ "type": "Feature", "properties": { "aea_plant_id": 189, "eia_plant_id": 6304, "name": "Kotzebue", "pce_reporting_id": 332130, "aea_operator_id": 48, "eia_operator_id": 10451, "grid_id": 135, "service_area_geom_id": "17_1", "combined_heat_power": false, "grid_primary_voltage_kv": 7.2, "grid_primary_voltage_2_kv": null, "phases": null, "notes": null }, "geometry": { "type": "Point", "coordinates": [ -162.556944, 66.837778 ] } },
{ "type": "Feature", "properties": { "aea_plant_id": 190, "eia_plant_id": null, "name": "Koyukuk", "pce_reporting_id": 332140, "aea_operator_id": 49, "eia_operator_id": null, "grid_id": 136, "service_area_geom_id": "687_1", "combined_heat_power": true, "grid_primary_voltage_kv": 7.2, "grid_primary_voltage_2_kv": null, "phases": null, "notes": null }, "geometry": { "type": "Point", "coordinates": [ -157.70103, 64.88093 ] } },
{ "type": "Feature", "properties": { "aea_plant_id": 191, "eia_plant_id": null, "name": "Kwethluk", "pce_reporting_id": 332150, "aea_operator_id": 50, "eia_operator_id": null, "grid_id": 137, "service_area_geom_id": "281_1", "combined_heat_power": true, "grid_primary_voltage_kv": 7.2, "grid_primary_voltage_2_kv": null, "phases": null, "notes": null }, "geometry": { "type": "Point", "coordinates": [ -161.43583, 60.81222 ] } },
{ "type": "Feature", "properties": { "aea_plant_id": 192, "eia_plant_id": null, "name": "Kwigillingok", "pce_reporting_id": 332160, "aea_operator_id": 51, "eia_operator_id": null, "grid_id": 138, "service_area_geom_id": "376_1", "combined_heat_power": true, "grid_primary_voltage_kv": 7.2, "grid_primary_voltage_2_kv": null, "phases": null, "notes": null }, "geometry": { "type": "Point", "coordinates": [ -163.13322, 59.86393 ] } },
{ "type": "Feature", "properties": { "aea_plant_id": 193, "eia_plant_id": null, "name": "Larsen Bay", "pce_reporting_id": 332170, "aea_operator_id": 52, "eia_operator_id": null, "grid_id": 139, "service_area_geom_id": "353_1", "combined_heat_power": true, "grid_primary_voltage_kv": 7.2, "grid_primary_voltage_2_kv": null, "phases": null, "notes": null }, "geometry": { "type": "Point", "coordinates": [ -153.97844, 57.53854 ] } },
{ "type": "Feature", "properties": { "aea_plant_id": 194, "eia_plant_id": null, "name": "Levelock", "pce_reporting_id": 332180, "aea_operator_id": 53, "eia_operator_id": null, "grid_id": 140, "service_area_geom_id": "330_1", "combined_heat_power": true, "grid_primary_voltage_kv": 7.2, "grid_primary_voltage_2_kv": null, "phases": null, "notes": null }, "geometry": { "type": "Point", "coordinates": [ -156.85667, 59.115 ] } },
{ "type": "Feature", "properties": { "aea_plant_id": 195, "eia_plant_id": null, "name": "Lime Village", "pce_reporting_id": 332190, "aea_operator_id": 54, "eia_operator_id": null, "grid_id": 141, "service_area_geom_id": "570_1", "combined_heat_power": false, "grid_primary_voltage_kv": null, "grid_primary_voltage_2_kv": null, "phases": null, "notes": null }, "geometry": { "type": "Point", "coordinates": [ -155.43556, 61.35639 ] } },
{ "type": "Feature", "properties": { "aea_plant_id": 196, "eia_plant_id": null, "name": "Manokotak", "pce_reporting_id": 332210, "aea_operator_id": 56, "eia_operator_id": null, "grid_id": 142, "service_area_geom_id": "321_1", "combined_heat_power": true, "grid_primary_voltage_kv": 7.2, "grid_primary_voltage_2_kv": null, "phases": null, "notes": null }, "geometry": { "type": "Point", "coordinates": [ -159.05833, 58.98139 ] } },
{ "type": "Feature", "properties": { "aea_plant_id": 197, "eia_plant_id": 58989, "name": "Eklutna Generation Station", "pce_reporting_id": null, "aea_operator_id": 107, "eia_operator_id": 11824, "grid_id": 215, "service_area_geom_id": "18_1", "combined_heat_power": false, "grid_primary_voltage_kv": 115.0, "grid_primary_voltage_2_kv": null, "phases": null, "notes": null }, "geometry": { "type": "Point", "coordinates": [ -149.351389, 61.457778 ] } },
{ "type": "Feature", "properties": { "aea_plant_id": 198, "eia_plant_id": 6555, "name": "McGrath", "pce_reporting_id": 332220, "aea_operator_id": 57, "eia_operator_id": 12119, "grid_id": 143, "service_area_geom_id": "44_1", "combined_heat_power": true, "grid_primary_voltage_kv": 2.4, "grid_primary_voltage_2_kv": null, "phases": null, "notes": null }, "geometry": { "type": "Point", "coordinates": [ -155.594997, 62.95699 ] } },
{ "type": "Feature", "properties": { "aea_plant_id": 199, "eia_plant_id": 7112, "name": "Centennial", "pce_reporting_id": null, "aea_operator_id": 108, "eia_operator_id": 12385, "grid_id": 225, "service_area_geom_id": null, "combined_heat_power": false, "grid_primary_voltage_kv": 12.47, "grid_primary_voltage_2_kv": null, "phases": null, "notes": null }, "geometry": { "type": "Point", "coordinates": [ -131.560267, 55.121433 ] } },
{ "type": "Feature", "properties": { "aea_plant_id": 200, "eia_plant_id": 7168, "name": "Chester Lake", "pce_reporting_id": null, "aea_operator_id": 108, "eia_operator_id": 12385, "grid_id": 225, "service_area_geom_id": null, "combined_heat_power": false, "grid_primary_voltage_kv": 12.47, "grid_primary_voltage_2_kv": null, "phases": null, "notes": null }, "geometry": { "type": "Point", "coordinates": [ -131.545879, 55.116879 ] } },
{ "type": "Feature", "properties": { "aea_plant_id": 201, "eia_plant_id": 6302, "name": "Purple Lake", "pce_reporting_id": null, "aea_operator_id": 108, "eia_operator_id": 12385, "grid_id": 225, "service_area_geom_id": null, "combined_heat_power": false, "grid_primary_voltage_kv": 12.47, "grid_primary_voltage_2_kv": null, "phases": null, "notes": null }, "geometry": { "type": "Point", "coordinates": [ -131.544978, 55.091263 ] } },
{ "type": "Feature", "properties": { "aea_plant_id": 202, "eia_plant_id": null, "name": "Chuathbaluk", "pce_reporting_id": 332230, "aea_operator_id": 58, "eia_operator_id": null, "grid_id": 144, "service_area_geom_id": "343_1", "combined_heat_power": false, "grid_primary_voltage_kv": 7.2, "grid_primary_voltage_2_kv": null, "phases": null, "notes": null }, "geometry": { "type": "Point", "coordinates": [ -159.245, 61.57194 ] } },
{ "type": "Feature", "properties": { "aea_plant_id": 203, "eia_plant_id": null, "name": "Crooked Creek", "pce_reporting_id": 332240, "aea_operator_id": 58, "eia_operator_id": null, "grid_id": 145, "service_area_geom_id": "343_4", "combined_heat_power": true, "grid_primary_voltage_kv": 7.2, "grid_primary_voltage_2_kv": null, "phases": null, "notes": null }, "geometry": { "type": "Point", "coordinates": [ -158.11083, 61.87 ] } },
{ "type": "Feature", "properties": { "aea_plant_id": 204, "eia_plant_id": null, "name": "Red Devil", "pce_reporting_id": 332250, "aea_operator_id": 58, "eia_operator_id": null, "grid_id": 146, "service_area_geom_id": "343_3", "combined_heat_power": false, "grid_primary_voltage_kv": 7.2, "grid_primary_voltage_2_kv": null, "phases": null, "notes": null }, "geometry": { "type": "Point", "coordinates": [ -157.3125, 61.76111 ] } },
{ "type": "Feature", "properties": { "aea_plant_id": 205, "eia_plant_id": null, "name": "Sleetmute", "pce_reporting_id": 332260, "aea_operator_id": 58, "eia_operator_id": null, "grid_id": 147, "service_area_geom_id": "343_3", "combined_heat_power": true, "grid_primary_voltage_kv": 7.2, "grid_primary_voltage_2_kv": null, "phases": null, "notes": null }, "geometry": { "type": "Point", "coordinates": [ -157.16972, 61.7025 ] } },
{ "type": "Feature", "properties": { "aea_plant_id": 206, "eia_plant_id": null, "name": "Stony River", "pce_reporting_id": 332270, "aea_operator_id": 58, "eia_operator_id": null, "grid_id": 148, "service_area_geom_id": "343_2", "combined_heat_power": true, "grid_primary_voltage_kv": 7.2, "grid_primary_voltage_2_kv": null, "phases": null, "notes": null }, "geometry": { "type": "Point", "coordinates": [ -156.58806, 61.78306 ] } },
{ "type": "Feature", "properties": { "aea_plant_id": 207, "eia_plant_id": 6301, "name": "Naknek", "pce_reporting_id": 332280, "aea_operator_id": 59, "eia_operator_id": 13201, "grid_id": 150, "service_area_geom_id": "22_1", "combined_heat_power": true, "grid_primary_voltage_kv": 7.2, "grid_primary_voltage_2_kv": null, "phases": null, "notes": null }, "geometry": { "type": "Point", "coordinates": [ -157.007222, 58.730417 ] } },
{ "type": "Feature", "properties": { "aea_plant_id": 208, "eia_plant_id": null, "name": "Napakiak", "pce_reporting_id": 332290, "aea_operator_id": 60, "eia_operator_id": null, "grid_id": 34, "service_area_geom_id": null, "combined_heat_power": false, "grid_primary_voltage_kv": 7.2, "grid_primary_voltage_2_kv": null, "phases": null, "notes": null }, "geometry": null },
{ "type": "Feature", "properties": { "aea_plant_id": 209, "eia_plant_id": null, "name": "Napaskiak", "pce_reporting_id": 332300, "aea_operator_id": 61, "eia_operator_id": null, "grid_id": 153, "service_area_geom_id": "625_1", "combined_heat_power": false, "grid_primary_voltage_kv": 7.2, "grid_primary_voltage_2_kv": null, "phases": null, "notes": null }, "geometry": { "type": "Point", "coordinates": [ -161.76611, 60.70806 ] } },
{ "type": "Feature", "properties": { "aea_plant_id": 210, "eia_plant_id": null, "name": "Chefornak", "pce_reporting_id": 332310, "aea_operator_id": 62, "eia_operator_id": null, "grid_id": 154, "service_area_geom_id": "365_1", "combined_heat_power": true, "grid_primary_voltage_kv": 7.2, "grid_primary_voltage_2_kv": null, "phases": null, "notes": null }, "geometry": { "type": "Point", "coordinates": [ -164.26583, 60.16 ] } },
{ "type": "Feature", "properties": { "aea_plant_id": 211, "eia_plant_id": null, "name": "Perryville", "pce_reporting_id": 332470, "aea_operator_id": 73, "eia_operator_id": null, "grid_id": 155, "service_area_geom_id": "659_1", "combined_heat_power": true, "grid_primary_voltage_kv": 7.2, "grid_primary_voltage_2_kv": null, "phases": null, "notes": null }, "geometry": { "type": "Point", "coordinates": [ -159.14556, 55.91278 ] } },
{ "type": "Feature", "properties": { "aea_plant_id": 212, "eia_plant_id": null, "name": "Nelson Lagoon", "pce_reporting_id": 332320, "aea_operator_id": 63, "eia_operator_id": null, "grid_id": 156, "service_area_geom_id": "340_1", "combined_heat_power": false, "grid_primary_voltage_kv": 7.2, "grid_primary_voltage_2_kv": null, "phases": null, "notes": null },